route_id,trip_id,stop_id,arrival_time,departure_time,shape_dist_traveled,stop_headsign,stop_name,stop_lat,stop_lon
16C,6c66d472-1f59-4a6d-be66-4881d3dfea46,BUS146,07:00:00,07:00:00,0.0,to Purdue Campus University Hall,Aviation Technology Bldg: BUS146,40.4165685425144,-86.9298910754854
16C,6c66d472-1f59-4a6d-be66-4881d3dfea46,BUS440,07:04:30,07:04:30,1325.55,to Purdue Campus University Hall,Harrison St & Russell Dr (SW Corner): BUS440,40.4202740144893,-86.9197617125369
16C,6c66d472-1f59-4a6d-be66-4881d3dfea46,BUS324,07:06:00,07:06:00,1763.91,to Purdue Campus University Hall,Lynn Hall on Harrison St: BUS324,40.420295,-86.91458
16C,6c66d472-1f59-4a6d-be66-4881d3dfea46,BUS294,07:09:04,07:09:04,2350.74,to Purdue Campus University Hall,Grant Street Station Apts (@ Shelter): BUS294,40.4195851803601,-86.9102195739364
16C,6c66d472-1f59-4a6d-be66-4881d3dfea46,BUS321,07:10:29,07:10:29,2621.94,to Purdue Campus University Hall,Grant St & Wood St (SE Corner): BUS320,40.4220254970804,-86.910270715372
16C,6c66d472-1f59-4a6d-be66-4881d3dfea46,BUS154,07:11:08,07:11:08,2746.19,to Purdue Campus University Hall,Young Hall on Grant St (East): BUS154,40.4231436139921,-86.9102643947257
16C,6c66d472-1f59-4a6d-be66-4881d3dfea46,BUS184,07:13:06,07:13:06,3121.19,to Purdue Campus University Hall,Grissom Hall on Grant St (at Shelter): BUS184,40.4265181974481,-86.9103069251959
16C,6c66d472-1f59-4a6d-be66-4881d3dfea46,BUS295,07:15:00,07:15:00,3482.81,to Purdue Campus University Hall,Wang Hall on Northwestern (at Crosswalk): BUS295,40.4293452459183,-86.9117512948365
16C,6c66d472-1f59-4a6d-be66-4881d3dfea46,BUS530,07:16:02,07:16:02,3735.39,to Purdue Campus University Hall,Northwestern Ave & Stadium Ave (McDonalds): BUS530,40.431117,-86.913622
16C,6c66d472-1f59-4a6d-be66-4881d3dfea46,BUS105,07:16:41,07:16:41,3896.74,to Purdue Campus University Hall,Northwestern Ave & Evergreen St(SE Corner): BUS105,40.432242,-86.914828
16C,6c66d472-1f59-4a6d-be66-4881d3dfea46,BUS284,07:17:30,07:17:30,4095.29,to Purdue Campus University Hall,Northwestern Ave & Meridian St(SE Corner): BUS284,40.4340002199411,-86.9151375839196
16C,6c66d472-1f59-4a6d-be66-4881d3dfea46,BUS203,07:18:45,07:18:45,4400.4,to Purdue Campus University Hall,Northwestern Ave & Northridge Dr(SE Corner):BUS203,40.436737,-86.915429
16C,6bc2385a-3dd8-4e9c-bcfe-9ef2bca620b2,BUS146,07:20:00,07:20:00,0.0,to Purdue Campus University Hall,Aviation Technology Bldg: BUS146,40.4165685425144,-86.9298910754854
16C,6c66d472-1f59-4a6d-be66-4881d3dfea46,BUS426,07:22:00,07:22:00,5190.98,to Purdue Campus University Hall,Stadium Parking Lot on Victory Dr(@Shelter):BUS426,40.4359850547305,-86.9186553012523
16C,608132cf-6db9-4bed-a86b-1373578a0ab2,BUS426,07:22:00,07:22:00,0.0,to Purdue Airport,Stadium Parking Lot on Victory Dr(@Shelter):BUS426,40.4359850547305,-86.9186553012523
16C,608132cf-6db9-4bed-a86b-1373578a0ab2,BUS213S,07:24:10,07:24:10,455.47,to Purdue Airport,Steven Beering Dr & Tower Dr (SW of): BUS213S,40.432584,-86.919271
16C,6bc2385a-3dd8-4e9c-bcfe-9ef2bca620b2,BUS440,07:24:30,07:24:30,1325.55,to Purdue Campus University Hall,Harrison St & Russell Dr (SW Corner): BUS440,40.4202740144893,-86.9197617125369
16C,6bc2385a-3dd8-4e9c-bcfe-9ef2bca620b2,BUS324,07:26:00,07:26:00,1763.91,to Purdue Campus University Hall,Lynn Hall on Harrison St: BUS324,40.420295,-86.91458
16C,608132cf-6db9-4bed-a86b-1373578a0ab2,BUS439,07:26:24,07:26:24,926.23,to Purdue Airport,Russell St & 4th St (NW Corner): BUS439,40.4283480709001,-86.9191991439452
16C,608132cf-6db9-4bed-a86b-1373578a0ab2,BUS804,07:27:28,07:27:28,1148.5,to Purdue Airport,Russell St & 2nd (NW Corner): BUS804,40.4263479523196,-86.9192270252577
16C,6bc2385a-3dd8-4e9c-bcfe-9ef2bca620b2,BUS294,07:29:04,07:29:04,2350.74,to Purdue Campus University Hall,Grant Street Station Apts (@ Shelter): BUS294,40.4195851803601,-86.9102195739364
16C,608132cf-6db9-4bed-a86b-1373578a0ab2,BUS899,07:30:06,07:30:06,1701.32,to Purdue Airport,Morgan & Jischke Dr (SW Corner): BUS899,40.4234215869559,-86.9217934859868
16C,6bc2385a-3dd8-4e9c-bcfe-9ef2bca620b2,BUS321,07:30:29,07:30:29,2621.94,to Purdue Campus University Hall,Grant St & Wood St (SE Corner): BUS320,40.4220254970804,-86.910270715372
16C,6bc2385a-3dd8-4e9c-bcfe-9ef2bca620b2,BUS154,07:31:08,07:31:08,2746.19,to Purdue Campus University Hall,Young Hall on Grant St (East): BUS154,40.4231436139921,-86.9102643947257
16C,608132cf-6db9-4bed-a86b-1373578a0ab2,BUS900,07:31:28,07:31:28,1986.19,to Purdue Airport,Discovery Learning Center:  BUS900,40.4208681994858,-86.9219094887933
16C,608132cf-6db9-4bed-a86b-1373578a0ab2,BUS543NE,07:32:01,07:32:01,2101.05,to Purdue Airport,Gates Rd & Nimitz Dr (NE Corner): BUS543NE,40.4209102569667,-86.9231100083404
16C,6bc2385a-3dd8-4e9c-bcfe-9ef2bca620b2,BUS184,07:33:06,07:33:06,3121.19,to Purdue Campus University Hall,Grissom Hall on Grant St (at Shelter): BUS184,40.4265181974481,-86.9103069251959
16C,608132cf-6db9-4bed-a86b-1373578a0ab2,BUS249,07:34:00,07:34:00,2516.92,to Purdue Airport,Discovery Parking Lot (at Shelter): BUS249,40.4194143664488,-86.9240948214588
16C,608132cf-6db9-4bed-a86b-1373578a0ab2,BUS543SE,07:34:43,07:34:43,2696.65,to Purdue Airport,Gates Rd & Nimitz Dr (SE Corner): BUS543SE,40.4207538802026,-86.9232279055134
16C,6bc2385a-3dd8-4e9c-bcfe-9ef2bca620b2,BUS295,07:35:00,07:35:00,3482.81,to Purdue Campus University Hall,Wang Hall on Northwestern (at Crosswalk): BUS295,40.4293452459183,-86.9117512948365
16C,6bc2385a-3dd8-4e9c-bcfe-9ef2bca620b2,BUS530,07:36:02,07:36:02,3735.39,to Purdue Campus University Hall,Northwestern Ave & Stadium Ave (McDonalds): BUS530,40.431117,-86.913622
16C,6bc2385a-3dd8-4e9c-bcfe-9ef2bca620b2,BUS105,07:36:41,07:36:41,3896.74,to Purdue Campus University Hall,Northwestern Ave & Evergreen St(SE Corner): BUS105,40.432242,-86.914828
16C,6bc2385a-3dd8-4e9c-bcfe-9ef2bca620b2,BUS284,07:37:30,07:37:30,4095.29,to Purdue Campus University Hall,Northwestern Ave & Meridian St(SE Corner): BUS284,40.4340002199411,-86.9151375839196
16C,6bc2385a-3dd8-4e9c-bcfe-9ef2bca620b2,BUS203,07:38:45,07:38:45,4400.4,to Purdue Campus University Hall,Northwestern Ave & Northridge Dr(SE Corner):BUS203,40.436737,-86.915429
16C,9599e590-909f-4401-a113-3529a4728429,BUS146,07:40:00,07:40:00,0.0,to Purdue Campus University Hall,Aviation Technology Bldg: BUS146,40.4165685425144,-86.9298910754854
16C,608132cf-6db9-4bed-a86b-1373578a0ab2,BUS146,07:40:00,07:40:00,4000.05,to Purdue Airport,Aviation Technology Bldg: BUS146,40.4165685425144,-86.9298910754854
16C,fc1cff94-034d-430c-a10f-91e979b85f32,BUS426,07:42:00,07:42:00,0.0,to Purdue Airport,Stadium Parking Lot on Victory Dr(@Shelter):BUS426,40.4359850547305,-86.9186553012523
16C,6bc2385a-3dd8-4e9c-bcfe-9ef2bca620b2,BUS426,07:42:00,07:42:00,5190.98,to Purdue Campus University Hall,Stadium Parking Lot on Victory Dr(@Shelter):BUS426,40.4359850547305,-86.9186553012523
16C,fc1cff94-034d-430c-a10f-91e979b85f32,BUS213S,07:44:10,07:44:10,455.47,to Purdue Airport,Steven Beering Dr & Tower Dr (SW of): BUS213S,40.432584,-86.919271
16C,9599e590-909f-4401-a113-3529a4728429,BUS440,07:44:30,07:44:30,1325.55,to Purdue Campus University Hall,Harrison St & Russell Dr (SW Corner): BUS440,40.4202740144893,-86.9197617125369
16C,9599e590-909f-4401-a113-3529a4728429,BUS324,07:46:00,07:46:00,1763.91,to Purdue Campus University Hall,Lynn Hall on Harrison St: BUS324,40.420295,-86.91458
16C,fc1cff94-034d-430c-a10f-91e979b85f32,BUS439,07:46:24,07:46:24,926.23,to Purdue Airport,Russell St & 4th St (NW Corner): BUS439,40.4283480709001,-86.9191991439452
16C,fc1cff94-034d-430c-a10f-91e979b85f32,BUS804,07:47:28,07:47:28,1148.5,to Purdue Airport,Russell St & 2nd (NW Corner): BUS804,40.4263479523196,-86.9192270252577
16C,9599e590-909f-4401-a113-3529a4728429,BUS294,07:49:04,07:49:04,2350.74,to Purdue Campus University Hall,Grant Street Station Apts (@ Shelter): BUS294,40.4195851803601,-86.9102195739364
16C,fc1cff94-034d-430c-a10f-91e979b85f32,BUS899,07:50:06,07:50:06,1701.32,to Purdue Airport,Morgan & Jischke Dr (SW Corner): BUS899,40.4234215869559,-86.9217934859868
16C,9599e590-909f-4401-a113-3529a4728429,BUS321,07:50:29,07:50:29,2621.94,to Purdue Campus University Hall,Grant St & Wood St (SE Corner): BUS320,40.4220254970804,-86.910270715372
16C,9599e590-909f-4401-a113-3529a4728429,BUS154,07:51:08,07:51:08,2746.19,to Purdue Campus University Hall,Young Hall on Grant St (East): BUS154,40.4231436139921,-86.9102643947257
16C,fc1cff94-034d-430c-a10f-91e979b85f32,BUS900,07:51:28,07:51:28,1986.19,to Purdue Airport,Discovery Learning Center:  BUS900,40.4208681994858,-86.9219094887933
16C,fc1cff94-034d-430c-a10f-91e979b85f32,BUS543NE,07:52:01,07:52:01,2101.05,to Purdue Airport,Gates Rd & Nimitz Dr (NE Corner): BUS543NE,40.4209102569667,-86.9231100083404
16C,9599e590-909f-4401-a113-3529a4728429,BUS184,07:53:06,07:53:06,3121.19,to Purdue Campus University Hall,Grissom Hall on Grant St (at Shelter): BUS184,40.4265181974481,-86.9103069251959
16C,fc1cff94-034d-430c-a10f-91e979b85f32,BUS249,07:54:00,07:54:00,2516.92,to Purdue Airport,Discovery Parking Lot (at Shelter): BUS249,40.4194143664488,-86.9240948214588
16C,fc1cff94-034d-430c-a10f-91e979b85f32,BUS543SE,07:54:43,07:54:43,2696.65,to Purdue Airport,Gates Rd & Nimitz Dr (SE Corner): BUS543SE,40.4207538802026,-86.9232279055134
16C,9599e590-909f-4401-a113-3529a4728429,BUS295,07:55:00,07:55:00,3482.81,to Purdue Campus University Hall,Wang Hall on Northwestern (at Crosswalk): BUS295,40.4293452459183,-86.9117512948365
16C,9599e590-909f-4401-a113-3529a4728429,BUS530,07:56:02,07:56:02,3735.39,to Purdue Campus University Hall,Northwestern Ave & Stadium Ave (McDonalds): BUS530,40.431117,-86.913622
16C,9599e590-909f-4401-a113-3529a4728429,BUS105,07:56:41,07:56:41,3896.74,to Purdue Campus University Hall,Northwestern Ave & Evergreen St(SE Corner): BUS105,40.432242,-86.914828
16C,9599e590-909f-4401-a113-3529a4728429,BUS284,07:57:30,07:57:30,4095.29,to Purdue Campus University Hall,Northwestern Ave & Meridian St(SE Corner): BUS284,40.4340002199411,-86.9151375839196
16C,9599e590-909f-4401-a113-3529a4728429,BUS203,07:58:45,07:58:45,4400.4,to Purdue Campus University Hall,Northwestern Ave & Northridge Dr(SE Corner):BUS203,40.436737,-86.915429
16C,5cda3cfb-b007-4dae-892b-a1969d8e1ed3,BUS146,08:00:00,08:00:00,0.0,to Purdue Campus University Hall,Aviation Technology Bldg: BUS146,40.4165685425144,-86.9298910754854
16C,fc1cff94-034d-430c-a10f-91e979b85f32,BUS146,08:00:00,08:00:00,4000.05,to Purdue Airport,Aviation Technology Bldg: BUS146,40.4165685425144,-86.9298910754854
16C,9599e590-909f-4401-a113-3529a4728429,BUS426,08:02:00,08:02:00,5190.98,to Purdue Campus University Hall,Stadium Parking Lot on Victory Dr(@Shelter):BUS426,40.4359850547305,-86.9186553012523
16C,3b23f89d-c427-479c-b203-50b66e7dfdd4,BUS426,08:02:00,08:02:00,0.0,to Purdue Airport,Stadium Parking Lot on Victory Dr(@Shelter):BUS426,40.4359850547305,-86.9186553012523
16C,3b23f89d-c427-479c-b203-50b66e7dfdd4,BUS213S,08:04:10,08:04:10,455.47,to Purdue Airport,Steven Beering Dr & Tower Dr (SW of): BUS213S,40.432584,-86.919271
16C,5cda3cfb-b007-4dae-892b-a1969d8e1ed3,BUS440,08:04:30,08:04:30,1325.55,to Purdue Campus University Hall,Harrison St & Russell Dr (SW Corner): BUS440,40.4202740144893,-86.9197617125369
16C,5cda3cfb-b007-4dae-892b-a1969d8e1ed3,BUS324,08:06:00,08:06:00,1763.91,to Purdue Campus University Hall,Lynn Hall on Harrison St: BUS324,40.420295,-86.91458
16C,3b23f89d-c427-479c-b203-50b66e7dfdd4,BUS439,08:06:24,08:06:24,926.23,to Purdue Airport,Russell St & 4th St (NW Corner): BUS439,40.4283480709001,-86.9191991439452
16C,3b23f89d-c427-479c-b203-50b66e7dfdd4,BUS804,08:07:28,08:07:28,1148.5,to Purdue Airport,Russell St & 2nd (NW Corner): BUS804,40.4263479523196,-86.9192270252577
16C,5cda3cfb-b007-4dae-892b-a1969d8e1ed3,BUS294,08:09:04,08:09:04,2350.74,to Purdue Campus University Hall,Grant Street Station Apts (@ Shelter): BUS294,40.4195851803601,-86.9102195739364
16C,3b23f89d-c427-479c-b203-50b66e7dfdd4,BUS899,08:10:06,08:10:06,1701.32,to Purdue Airport,Morgan & Jischke Dr (SW Corner): BUS899,40.4234215869559,-86.9217934859868
16C,5cda3cfb-b007-4dae-892b-a1969d8e1ed3,BUS321,08:10:29,08:10:29,2621.94,to Purdue Campus University Hall,Grant St & Wood St (SE Corner): BUS320,40.4220254970804,-86.910270715372
16C,5cda3cfb-b007-4dae-892b-a1969d8e1ed3,BUS154,08:11:08,08:11:08,2746.19,to Purdue Campus University Hall,Young Hall on Grant St (East): BUS154,40.4231436139921,-86.9102643947257
16C,3b23f89d-c427-479c-b203-50b66e7dfdd4,BUS900,08:11:28,08:11:28,1986.19,to Purdue Airport,Discovery Learning Center:  BUS900,40.4208681994858,-86.9219094887933
16C,3b23f89d-c427-479c-b203-50b66e7dfdd4,BUS543NE,08:12:01,08:12:01,2101.05,to Purdue Airport,Gates Rd & Nimitz Dr (NE Corner): BUS543NE,40.4209102569667,-86.9231100083404
16C,5cda3cfb-b007-4dae-892b-a1969d8e1ed3,BUS184,08:13:06,08:13:06,3121.19,to Purdue Campus University Hall,Grissom Hall on Grant St (at Shelter): BUS184,40.4265181974481,-86.9103069251959
16C,3b23f89d-c427-479c-b203-50b66e7dfdd4,BUS249,08:14:00,08:14:00,2516.92,to Purdue Airport,Discovery Parking Lot (at Shelter): BUS249,40.4194143664488,-86.9240948214588
16C,3b23f89d-c427-479c-b203-50b66e7dfdd4,BUS543SE,08:14:43,08:14:43,2696.65,to Purdue Airport,Gates Rd & Nimitz Dr (SE Corner): BUS543SE,40.4207538802026,-86.9232279055134
16C,5cda3cfb-b007-4dae-892b-a1969d8e1ed3,BUS295,08:15:00,08:15:00,3482.81,to Purdue Campus University Hall,Wang Hall on Northwestern (at Crosswalk): BUS295,40.4293452459183,-86.9117512948365
16C,5cda3cfb-b007-4dae-892b-a1969d8e1ed3,BUS530,08:16:02,08:16:02,3735.39,to Purdue Campus University Hall,Northwestern Ave & Stadium Ave (McDonalds): BUS530,40.431117,-86.913622
16C,5cda3cfb-b007-4dae-892b-a1969d8e1ed3,BUS105,08:16:41,08:16:41,3896.74,to Purdue Campus University Hall,Northwestern Ave & Evergreen St(SE Corner): BUS105,40.432242,-86.914828
16C,5cda3cfb-b007-4dae-892b-a1969d8e1ed3,BUS284,08:17:30,08:17:30,4095.29,to Purdue Campus University Hall,Northwestern Ave & Meridian St(SE Corner): BUS284,40.4340002199411,-86.9151375839196
16C,5cda3cfb-b007-4dae-892b-a1969d8e1ed3,BUS203,08:18:45,08:18:45,4400.4,to Purdue Campus University Hall,Northwestern Ave & Northridge Dr(SE Corner):BUS203,40.436737,-86.915429
16C,3b23f89d-c427-479c-b203-50b66e7dfdd4,BUS146,08:20:00,08:20:00,4000.05,to Purdue Airport,Aviation Technology Bldg: BUS146,40.4165685425144,-86.9298910754854
16C,966d43ab-b7f1-463d-8252-91badeb81fff,BUS146,08:20:00,08:20:00,0.0,to Purdue Campus University Hall,Aviation Technology Bldg: BUS146,40.4165685425144,-86.9298910754854
16C,8d708e96-1f07-4b01-aefc-a47aa05acfee,BUS426,08:22:00,08:22:00,0.0,to Purdue Airport,Stadium Parking Lot on Victory Dr(@Shelter):BUS426,40.4359850547305,-86.9186553012523
16C,5cda3cfb-b007-4dae-892b-a1969d8e1ed3,BUS426,08:22:00,08:22:00,5190.98,to Purdue Campus University Hall,Stadium Parking Lot on Victory Dr(@Shelter):BUS426,40.4359850547305,-86.9186553012523
16C,8d708e96-1f07-4b01-aefc-a47aa05acfee,BUS213S,08:24:10,08:24:10,455.47,to Purdue Airport,Steven Beering Dr & Tower Dr (SW of): BUS213S,40.432584,-86.919271
16C,966d43ab-b7f1-463d-8252-91badeb81fff,BUS440,08:24:30,08:24:30,1325.55,to Purdue Campus University Hall,Harrison St & Russell Dr (SW Corner): BUS440,40.4202740144893,-86.9197617125369
16C,966d43ab-b7f1-463d-8252-91badeb81fff,BUS324,08:26:00,08:26:00,1763.91,to Purdue Campus University Hall,Lynn Hall on Harrison St: BUS324,40.420295,-86.91458
16C,8d708e96-1f07-4b01-aefc-a47aa05acfee,BUS439,08:26:24,08:26:24,926.23,to Purdue Airport,Russell St & 4th St (NW Corner): BUS439,40.4283480709001,-86.9191991439452
16C,8d708e96-1f07-4b01-aefc-a47aa05acfee,BUS804,08:27:28,08:27:28,1148.5,to Purdue Airport,Russell St & 2nd (NW Corner): BUS804,40.4263479523196,-86.9192270252577
16C,966d43ab-b7f1-463d-8252-91badeb81fff,BUS294,08:29:04,08:29:04,2350.74,to Purdue Campus University Hall,Grant Street Station Apts (@ Shelter): BUS294,40.4195851803601,-86.9102195739364
16C,8d708e96-1f07-4b01-aefc-a47aa05acfee,BUS899,08:30:06,08:30:06,1701.32,to Purdue Airport,Morgan & Jischke Dr (SW Corner): BUS899,40.4234215869559,-86.9217934859868
16C,966d43ab-b7f1-463d-8252-91badeb81fff,BUS321,08:30:29,08:30:29,2621.94,to Purdue Campus University Hall,Grant St & Wood St (SE Corner): BUS320,40.4220254970804,-86.910270715372
16C,966d43ab-b7f1-463d-8252-91badeb81fff,BUS154,08:31:08,08:31:08,2746.19,to Purdue Campus University Hall,Young Hall on Grant St (East): BUS154,40.4231436139921,-86.9102643947257
16C,8d708e96-1f07-4b01-aefc-a47aa05acfee,BUS900,08:31:28,08:31:28,1986.19,to Purdue Airport,Discovery Learning Center:  BUS900,40.4208681994858,-86.9219094887933
16C,8d708e96-1f07-4b01-aefc-a47aa05acfee,BUS543NE,08:32:01,08:32:01,2101.05,to Purdue Airport,Gates Rd & Nimitz Dr (NE Corner): BUS543NE,40.4209102569667,-86.9231100083404
16C,966d43ab-b7f1-463d-8252-91badeb81fff,BUS184,08:33:06,08:33:06,3121.19,to Purdue Campus University Hall,Grissom Hall on Grant St (at Shelter): BUS184,40.4265181974481,-86.9103069251959
16C,8d708e96-1f07-4b01-aefc-a47aa05acfee,BUS249,08:34:00,08:34:00,2516.92,to Purdue Airport,Discovery Parking Lot (at Shelter): BUS249,40.4194143664488,-86.9240948214588
16C,8d708e96-1f07-4b01-aefc-a47aa05acfee,BUS543SE,08:34:43,08:34:43,2696.65,to Purdue Airport,Gates Rd & Nimitz Dr (SE Corner): BUS543SE,40.4207538802026,-86.9232279055134
16C,966d43ab-b7f1-463d-8252-91badeb81fff,BUS295,08:35:00,08:35:00,3482.81,to Purdue Campus University Hall,Wang Hall on Northwestern (at Crosswalk): BUS295,40.4293452459183,-86.9117512948365
16C,966d43ab-b7f1-463d-8252-91badeb81fff,BUS530,08:36:02,08:36:02,3735.39,to Purdue Campus University Hall,Northwestern Ave & Stadium Ave (McDonalds): BUS530,40.431117,-86.913622
16C,966d43ab-b7f1-463d-8252-91badeb81fff,BUS105,08:36:41,08:36:41,3896.74,to Purdue Campus University Hall,Northwestern Ave & Evergreen St(SE Corner): BUS105,40.432242,-86.914828
16C,966d43ab-b7f1-463d-8252-91badeb81fff,BUS284,08:37:30,08:37:30,4095.29,to Purdue Campus University Hall,Northwestern Ave & Meridian St(SE Corner): BUS284,40.4340002199411,-86.9151375839196
16C,966d43ab-b7f1-463d-8252-91badeb81fff,BUS203,08:38:45,08:38:45,4400.4,to Purdue Campus University Hall,Northwestern Ave & Northridge Dr(SE Corner):BUS203,40.436737,-86.915429
16C,bb7e58f4-d21d-44d7-a3e3-582a86e22e6c,BUS146,08:40:00,08:40:00,0.0,to Purdue Campus University Hall,Aviation Technology Bldg: BUS146,40.4165685425144,-86.9298910754854
16C,8d708e96-1f07-4b01-aefc-a47aa05acfee,BUS146,08:40:00,08:40:00,4000.05,to Purdue Airport,Aviation Technology Bldg: BUS146,40.4165685425144,-86.9298910754854
16C,966d43ab-b7f1-463d-8252-91badeb81fff,BUS426,08:42:00,08:42:00,5190.98,to Purdue Campus University Hall,Stadium Parking Lot on Victory Dr(@Shelter):BUS426,40.4359850547305,-86.9186553012523
16C,9e39ac3f-33e6-4d27-b63b-5eec5207a089,BUS426,08:42:00,08:42:00,0.0,to Purdue Airport,Stadium Parking Lot on Victory Dr(@Shelter):BUS426,40.4359850547305,-86.9186553012523
16C,9e39ac3f-33e6-4d27-b63b-5eec5207a089,BUS213S,08:44:10,08:44:10,455.47,to Purdue Airport,Steven Beering Dr & Tower Dr (SW of): BUS213S,40.432584,-86.919271
16C,bb7e58f4-d21d-44d7-a3e3-582a86e22e6c,BUS440,08:44:30,08:44:30,1325.55,to Purdue Campus University Hall,Harrison St & Russell Dr (SW Corner): BUS440,40.4202740144893,-86.9197617125369
16C,bb7e58f4-d21d-44d7-a3e3-582a86e22e6c,BUS324,08:46:00,08:46:00,1763.91,to Purdue Campus University Hall,Lynn Hall on Harrison St: BUS324,40.420295,-86.91458
16C,9e39ac3f-33e6-4d27-b63b-5eec5207a089,BUS439,08:46:24,08:46:24,926.23,to Purdue Airport,Russell St & 4th St (NW Corner): BUS439,40.4283480709001,-86.9191991439452
16C,9e39ac3f-33e6-4d27-b63b-5eec5207a089,BUS804,08:47:28,08:47:28,1148.5,to Purdue Airport,Russell St & 2nd (NW Corner): BUS804,40.4263479523196,-86.9192270252577
16C,bb7e58f4-d21d-44d7-a3e3-582a86e22e6c,BUS294,08:49:04,08:49:04,2350.74,to Purdue Campus University Hall,Grant Street Station Apts (@ Shelter): BUS294,40.4195851803601,-86.9102195739364
16C,9e39ac3f-33e6-4d27-b63b-5eec5207a089,BUS899,08:50:06,08:50:06,1701.32,to Purdue Airport,Morgan & Jischke Dr (SW Corner): BUS899,40.4234215869559,-86.9217934859868
16C,bb7e58f4-d21d-44d7-a3e3-582a86e22e6c,BUS321,08:50:29,08:50:29,2621.94,to Purdue Campus University Hall,Grant St & Wood St (SE Corner): BUS320,40.4220254970804,-86.910270715372
16C,bb7e58f4-d21d-44d7-a3e3-582a86e22e6c,BUS154,08:51:08,08:51:08,2746.19,to Purdue Campus University Hall,Young Hall on Grant St (East): BUS154,40.4231436139921,-86.9102643947257
16C,9e39ac3f-33e6-4d27-b63b-5eec5207a089,BUS900,08:51:28,08:51:28,1986.19,to Purdue Airport,Discovery Learning Center:  BUS900,40.4208681994858,-86.9219094887933
16C,9e39ac3f-33e6-4d27-b63b-5eec5207a089,BUS543NE,08:52:01,08:52:01,2101.05,to Purdue Airport,Gates Rd & Nimitz Dr (NE Corner): BUS543NE,40.4209102569667,-86.9231100083404
16C,bb7e58f4-d21d-44d7-a3e3-582a86e22e6c,BUS184,08:53:06,08:53:06,3121.19,to Purdue Campus University Hall,Grissom Hall on Grant St (at Shelter): BUS184,40.4265181974481,-86.9103069251959
16C,9e39ac3f-33e6-4d27-b63b-5eec5207a089,BUS249,08:54:00,08:54:00,2516.92,to Purdue Airport,Discovery Parking Lot (at Shelter): BUS249,40.4194143664488,-86.9240948214588
16C,9e39ac3f-33e6-4d27-b63b-5eec5207a089,BUS543SE,08:54:43,08:54:43,2696.65,to Purdue Airport,Gates Rd & Nimitz Dr (SE Corner): BUS543SE,40.4207538802026,-86.9232279055134
16C,bb7e58f4-d21d-44d7-a3e3-582a86e22e6c,BUS295,08:55:00,08:55:00,3482.81,to Purdue Campus University Hall,Wang Hall on Northwestern (at Crosswalk): BUS295,40.4293452459183,-86.9117512948365
16C,bb7e58f4-d21d-44d7-a3e3-582a86e22e6c,BUS530,08:56:02,08:56:02,3735.39,to Purdue Campus University Hall,Northwestern Ave & Stadium Ave (McDonalds): BUS530,40.431117,-86.913622
16C,bb7e58f4-d21d-44d7-a3e3-582a86e22e6c,BUS105,08:56:41,08:56:41,3896.74,to Purdue Campus University Hall,Northwestern Ave & Evergreen St(SE Corner): BUS105,40.432242,-86.914828
16C,bb7e58f4-d21d-44d7-a3e3-582a86e22e6c,BUS284,08:57:30,08:57:30,4095.29,to Purdue Campus University Hall,Northwestern Ave & Meridian St(SE Corner): BUS284,40.4340002199411,-86.9151375839196
16C,bb7e58f4-d21d-44d7-a3e3-582a86e22e6c,BUS203,08:58:45,08:58:45,4400.4,to Purdue Campus University Hall,Northwestern Ave & Northridge Dr(SE Corner):BUS203,40.436737,-86.915429
16C,9e39ac3f-33e6-4d27-b63b-5eec5207a089,BUS146,09:00:00,09:00:00,4000.05,to Purdue Airport,Aviation Technology Bldg: BUS146,40.4165685425144,-86.9298910754854
16C,7807d83a-f068-4f32-bb5e-6bf420507007,BUS146,09:00:00,09:00:00,0.0,to Purdue Campus University Hall,Aviation Technology Bldg: BUS146,40.4165685425144,-86.9298910754854
16C,bb7e58f4-d21d-44d7-a3e3-582a86e22e6c,BUS426,09:02:00,09:02:00,5190.98,to Purdue Campus University Hall,Stadium Parking Lot on Victory Dr(@Shelter):BUS426,40.4359850547305,-86.9186553012523
16C,4234976e-7f74-4b9b-b9dd-b41c504b5aa3,BUS426,09:02:00,09:02:00,0.0,to Purdue Airport,Stadium Parking Lot on Victory Dr(@Shelter):BUS426,40.4359850547305,-86.9186553012523
16C,4234976e-7f74-4b9b-b9dd-b41c504b5aa3,BUS213S,09:04:10,09:04:10,455.47,to Purdue Airport,Steven Beering Dr & Tower Dr (SW of): BUS213S,40.432584,-86.919271
16C,7807d83a-f068-4f32-bb5e-6bf420507007,BUS440,09:04:30,09:04:30,1325.55,to Purdue Campus University Hall,Harrison St & Russell Dr (SW Corner): BUS440,40.4202740144893,-86.9197617125369
16C,7807d83a-f068-4f32-bb5e-6bf420507007,BUS324,09:06:00,09:06:00,1763.91,to Purdue Campus University Hall,Lynn Hall on Harrison St: BUS324,40.420295,-86.91458
16C,4234976e-7f74-4b9b-b9dd-b41c504b5aa3,BUS439,09:06:24,09:06:24,926.23,to Purdue Airport,Russell St & 4th St (NW Corner): BUS439,40.4283480709001,-86.9191991439452
16C,4234976e-7f74-4b9b-b9dd-b41c504b5aa3,BUS804,09:07:28,09:07:28,1148.5,to Purdue Airport,Russell St & 2nd (NW Corner): BUS804,40.4263479523196,-86.9192270252577
16C,7807d83a-f068-4f32-bb5e-6bf420507007,BUS294,09:09:04,09:09:04,2350.74,to Purdue Campus University Hall,Grant Street Station Apts (@ Shelter): BUS294,40.4195851803601,-86.9102195739364
16C,4234976e-7f74-4b9b-b9dd-b41c504b5aa3,BUS899,09:10:06,09:10:06,1701.32,to Purdue Airport,Morgan & Jischke Dr (SW Corner): BUS899,40.4234215869559,-86.9217934859868
16C,7807d83a-f068-4f32-bb5e-6bf420507007,BUS321,09:10:29,09:10:29,2621.94,to Purdue Campus University Hall,Grant St & Wood St (SE Corner): BUS320,40.4220254970804,-86.910270715372
16C,7807d83a-f068-4f32-bb5e-6bf420507007,BUS154,09:11:08,09:11:08,2746.19,to Purdue Campus University Hall,Young Hall on Grant St (East): BUS154,40.4231436139921,-86.9102643947257
16C,4234976e-7f74-4b9b-b9dd-b41c504b5aa3,BUS900,09:11:28,09:11:28,1986.19,to Purdue Airport,Discovery Learning Center:  BUS900,40.4208681994858,-86.9219094887933
16C,4234976e-7f74-4b9b-b9dd-b41c504b5aa3,BUS543NE,09:12:01,09:12:01,2101.05,to Purdue Airport,Gates Rd & Nimitz Dr (NE Corner): BUS543NE,40.4209102569667,-86.9231100083404
16C,7807d83a-f068-4f32-bb5e-6bf420507007,BUS184,09:13:06,09:13:06,3121.19,to Purdue Campus University Hall,Grissom Hall on Grant St (at Shelter): BUS184,40.4265181974481,-86.9103069251959
16C,4234976e-7f74-4b9b-b9dd-b41c504b5aa3,BUS249,09:14:00,09:14:00,2516.92,to Purdue Airport,Discovery Parking Lot (at Shelter): BUS249,40.4194143664488,-86.9240948214588
16C,4234976e-7f74-4b9b-b9dd-b41c504b5aa3,BUS543SE,09:14:43,09:14:43,2696.65,to Purdue Airport,Gates Rd & Nimitz Dr (SE Corner): BUS543SE,40.4207538802026,-86.9232279055134
16C,7807d83a-f068-4f32-bb5e-6bf420507007,BUS295,09:15:00,09:15:00,3482.81,to Purdue Campus University Hall,Wang Hall on Northwestern (at Crosswalk): BUS295,40.4293452459183,-86.9117512948365
16C,7807d83a-f068-4f32-bb5e-6bf420507007,BUS530,09:16:02,09:16:02,3735.39,to Purdue Campus University Hall,Northwestern Ave & Stadium Ave (McDonalds): BUS530,40.431117,-86.913622
16C,7807d83a-f068-4f32-bb5e-6bf420507007,BUS105,09:16:41,09:16:41,3896.74,to Purdue Campus University Hall,Northwestern Ave & Evergreen St(SE Corner): BUS105,40.432242,-86.914828
16C,7807d83a-f068-4f32-bb5e-6bf420507007,BUS284,09:17:30,09:17:30,4095.29,to Purdue Campus University Hall,Northwestern Ave & Meridian St(SE Corner): BUS284,40.4340002199411,-86.9151375839196
16C,7807d83a-f068-4f32-bb5e-6bf420507007,BUS203,09:18:45,09:18:45,4400.4,to Purdue Campus University Hall,Northwestern Ave & Northridge Dr(SE Corner):BUS203,40.436737,-86.915429
16C,e9deaf1a-5927-473c-9399-921c995bd51d,BUS146,09:20:00,09:20:00,0.0,to Purdue Campus University Hall,Aviation Technology Bldg: BUS146,40.4165685425144,-86.9298910754854
16C,4234976e-7f74-4b9b-b9dd-b41c504b5aa3,BUS146,09:20:00,09:20:00,4000.05,to Purdue Airport,Aviation Technology Bldg: BUS146,40.4165685425144,-86.9298910754854
16C,0b5a37f5-61b0-4dad-8289-44aefa2a6f3c,BUS426,09:22:00,09:22:00,0.0,to Purdue Airport,Stadium Parking Lot on Victory Dr(@Shelter):BUS426,40.4359850547305,-86.9186553012523
16C,7807d83a-f068-4f32-bb5e-6bf420507007,BUS426,09:22:00,09:22:00,5190.98,to Purdue Campus University Hall,Stadium Parking Lot on Victory Dr(@Shelter):BUS426,40.4359850547305,-86.9186553012523
16C,0b5a37f5-61b0-4dad-8289-44aefa2a6f3c,BUS213S,09:24:10,09:24:10,455.47,to Purdue Airport,Steven Beering Dr & Tower Dr (SW of): BUS213S,40.432584,-86.919271
16C,e9deaf1a-5927-473c-9399-921c995bd51d,BUS440,09:24:30,09:24:30,1325.55,to Purdue Campus University Hall,Harrison St & Russell Dr (SW Corner): BUS440,40.4202740144893,-86.9197617125369
16C,e9deaf1a-5927-473c-9399-921c995bd51d,BUS324,09:26:00,09:26:00,1763.91,to Purdue Campus University Hall,Lynn Hall on Harrison St: BUS324,40.420295,-86.91458
16C,0b5a37f5-61b0-4dad-8289-44aefa2a6f3c,BUS439,09:26:24,09:26:24,926.23,to Purdue Airport,Russell St & 4th St (NW Corner): BUS439,40.4283480709001,-86.9191991439452
16C,0b5a37f5-61b0-4dad-8289-44aefa2a6f3c,BUS804,09:27:28,09:27:28,1148.5,to Purdue Airport,Russell St & 2nd (NW Corner): BUS804,40.4263479523196,-86.9192270252577
16C,e9deaf1a-5927-473c-9399-921c995bd51d,BUS294,09:29:04,09:29:04,2350.74,to Purdue Campus University Hall,Grant Street Station Apts (@ Shelter): BUS294,40.4195851803601,-86.9102195739364
16C,0b5a37f5-61b0-4dad-8289-44aefa2a6f3c,BUS899,09:30:06,09:30:06,1701.32,to Purdue Airport,Morgan & Jischke Dr (SW Corner): BUS899,40.4234215869559,-86.9217934859868
16C,e9deaf1a-5927-473c-9399-921c995bd51d,BUS321,09:30:29,09:30:29,2621.94,to Purdue Campus University Hall,Grant St & Wood St (SE Corner): BUS320,40.4220254970804,-86.910270715372
16C,e9deaf1a-5927-473c-9399-921c995bd51d,BUS154,09:31:08,09:31:08,2746.19,to Purdue Campus University Hall,Young Hall on Grant St (East): BUS154,40.4231436139921,-86.9102643947257
16C,0b5a37f5-61b0-4dad-8289-44aefa2a6f3c,BUS900,09:31:28,09:31:28,1986.19,to Purdue Airport,Discovery Learning Center:  BUS900,40.4208681994858,-86.9219094887933
16C,0b5a37f5-61b0-4dad-8289-44aefa2a6f3c,BUS543NE,09:32:01,09:32:01,2101.05,to Purdue Airport,Gates Rd & Nimitz Dr (NE Corner): BUS543NE,40.4209102569667,-86.9231100083404
16C,e9deaf1a-5927-473c-9399-921c995bd51d,BUS184,09:33:06,09:33:06,3121.19,to Purdue Campus University Hall,Grissom Hall on Grant St (at Shelter): BUS184,40.4265181974481,-86.9103069251959
16C,0b5a37f5-61b0-4dad-8289-44aefa2a6f3c,BUS249,09:34:00,09:34:00,2516.92,to Purdue Airport,Discovery Parking Lot (at Shelter): BUS249,40.4194143664488,-86.9240948214588
16C,0b5a37f5-61b0-4dad-8289-44aefa2a6f3c,BUS543SE,09:34:43,09:34:43,2696.65,to Purdue Airport,Gates Rd & Nimitz Dr (SE Corner): BUS543SE,40.4207538802026,-86.9232279055134
16C,e9deaf1a-5927-473c-9399-921c995bd51d,BUS295,09:35:00,09:35:00,3482.81,to Purdue Campus University Hall,Wang Hall on Northwestern (at Crosswalk): BUS295,40.4293452459183,-86.9117512948365
16C,e9deaf1a-5927-473c-9399-921c995bd51d,BUS530,09:36:02,09:36:02,3735.39,to Purdue Campus University Hall,Northwestern Ave & Stadium Ave (McDonalds): BUS530,40.431117,-86.913622
16C,e9deaf1a-5927-473c-9399-921c995bd51d,BUS105,09:36:41,09:36:41,3896.74,to Purdue Campus University Hall,Northwestern Ave & Evergreen St(SE Corner): BUS105,40.432242,-86.914828
16C,e9deaf1a-5927-473c-9399-921c995bd51d,BUS284,09:37:30,09:37:30,4095.29,to Purdue Campus University Hall,Northwestern Ave & Meridian St(SE Corner): BUS284,40.4340002199411,-86.9151375839196
16C,e9deaf1a-5927-473c-9399-921c995bd51d,BUS203,09:38:45,09:38:45,4400.4,to Purdue Campus University Hall,Northwestern Ave & Northridge Dr(SE Corner):BUS203,40.436737,-86.915429
16C,0b5a37f5-61b0-4dad-8289-44aefa2a6f3c,BUS146,09:40:00,09:40:00,4000.05,to Purdue Airport,Aviation Technology Bldg: BUS146,40.4165685425144,-86.9298910754854
16C,24605173-fef7-43bb-9326-b4e5704b7089,BUS146,09:40:00,09:40:00,0.0,to Purdue Campus University Hall,Aviation Technology Bldg: BUS146,40.4165685425144,-86.9298910754854
16C,e9deaf1a-5927-473c-9399-921c995bd51d,BUS426,09:42:00,09:42:00,5190.98,to Purdue Campus University Hall,Stadium Parking Lot on Victory Dr(@Shelter):BUS426,40.4359850547305,-86.9186553012523
16C,e8526ad3-6df0-4a3c-b118-30823dc28e31,BUS426,09:42:00,09:42:00,0.0,to Purdue Airport,Stadium Parking Lot on Victory Dr(@Shelter):BUS426,40.4359850547305,-86.9186553012523
16C,e8526ad3-6df0-4a3c-b118-30823dc28e31,BUS213S,09:44:10,09:44:10,455.47,to Purdue Airport,Steven Beering Dr & Tower Dr (SW of): BUS213S,40.432584,-86.919271
16C,24605173-fef7-43bb-9326-b4e5704b7089,BUS440,09:44:30,09:44:30,1325.55,to Purdue Campus University Hall,Harrison St & Russell Dr (SW Corner): BUS440,40.4202740144893,-86.9197617125369
16C,24605173-fef7-43bb-9326-b4e5704b7089,BUS324,09:46:00,09:46:00,1763.91,to Purdue Campus University Hall,Lynn Hall on Harrison St: BUS324,40.420295,-86.91458
16C,e8526ad3-6df0-4a3c-b118-30823dc28e31,BUS439,09:46:24,09:46:24,926.23,to Purdue Airport,Russell St & 4th St (NW Corner): BUS439,40.4283480709001,-86.9191991439452
16C,e8526ad3-6df0-4a3c-b118-30823dc28e31,BUS804,09:47:28,09:47:28,1148.5,to Purdue Airport,Russell St & 2nd (NW Corner): BUS804,40.4263479523196,-86.9192270252577
16C,24605173-fef7-43bb-9326-b4e5704b7089,BUS294,09:49:04,09:49:04,2350.74,to Purdue Campus University Hall,Grant Street Station Apts (@ Shelter): BUS294,40.4195851803601,-86.9102195739364
16C,e8526ad3-6df0-4a3c-b118-30823dc28e31,BUS899,09:50:06,09:50:06,1701.32,to Purdue Airport,Morgan & Jischke Dr (SW Corner): BUS899,40.4234215869559,-86.9217934859868
16C,24605173-fef7-43bb-9326-b4e5704b7089,BUS321,09:50:29,09:50:29,2621.94,to Purdue Campus University Hall,Grant St & Wood St (SE Corner): BUS320,40.4220254970804,-86.910270715372
16C,24605173-fef7-43bb-9326-b4e5704b7089,BUS154,09:51:08,09:51:08,2746.19,to Purdue Campus University Hall,Young Hall on Grant St (East): BUS154,40.4231436139921,-86.9102643947257
16C,e8526ad3-6df0-4a3c-b118-30823dc28e31,BUS900,09:51:28,09:51:28,1986.19,to Purdue Airport,Discovery Learning Center:  BUS900,40.4208681994858,-86.9219094887933
16C,e8526ad3-6df0-4a3c-b118-30823dc28e31,BUS543NE,09:52:01,09:52:01,2101.05,to Purdue Airport,Gates Rd & Nimitz Dr (NE Corner): BUS543NE,40.4209102569667,-86.9231100083404
16C,24605173-fef7-43bb-9326-b4e5704b7089,BUS184,09:53:06,09:53:06,3121.19,to Purdue Campus University Hall,Grissom Hall on Grant St (at Shelter): BUS184,40.4265181974481,-86.9103069251959
16C,e8526ad3-6df0-4a3c-b118-30823dc28e31,BUS249,09:54:00,09:54:00,2516.92,to Purdue Airport,Discovery Parking Lot (at Shelter): BUS249,40.4194143664488,-86.9240948214588
16C,e8526ad3-6df0-4a3c-b118-30823dc28e31,BUS543SE,09:54:43,09:54:43,2696.65,to Purdue Airport,Gates Rd & Nimitz Dr (SE Corner): BUS543SE,40.4207538802026,-86.9232279055134
16C,24605173-fef7-43bb-9326-b4e5704b7089,BUS295,09:55:00,09:55:00,3482.81,to Purdue Campus University Hall,Wang Hall on Northwestern (at Crosswalk): BUS295,40.4293452459183,-86.9117512948365
16C,24605173-fef7-43bb-9326-b4e5704b7089,BUS530,09:56:02,09:56:02,3735.39,to Purdue Campus University Hall,Northwestern Ave & Stadium Ave (McDonalds): BUS530,40.431117,-86.913622
16C,24605173-fef7-43bb-9326-b4e5704b7089,BUS105,09:56:41,09:56:41,3896.74,to Purdue Campus University Hall,Northwestern Ave & Evergreen St(SE Corner): BUS105,40.432242,-86.914828
16C,24605173-fef7-43bb-9326-b4e5704b7089,BUS284,09:57:30,09:57:30,4095.29,to Purdue Campus University Hall,Northwestern Ave & Meridian St(SE Corner): BUS284,40.4340002199411,-86.9151375839196
16C,24605173-fef7-43bb-9326-b4e5704b7089,BUS203,09:58:45,09:58:45,4400.4,to Purdue Campus University Hall,Northwestern Ave & Northridge Dr(SE Corner):BUS203,40.436737,-86.915429
16C,25f9f34c-950c-4356-8002-2646ca363806,BUS146,10:00:00,10:00:00,0.0,to Purdue Campus University Hall,Aviation Technology Bldg: BUS146,40.4165685425144,-86.9298910754854
16C,e8526ad3-6df0-4a3c-b118-30823dc28e31,BUS146,10:00:00,10:00:00,4000.05,to Purdue Airport,Aviation Technology Bldg: BUS146,40.4165685425144,-86.9298910754854
16C,057c36a0-675e-480d-9722-5e5a8d37f4d3,BUS426,10:02:00,10:02:00,0.0,to Purdue Airport,Stadium Parking Lot on Victory Dr(@Shelter):BUS426,40.4359850547305,-86.9186553012523
16C,24605173-fef7-43bb-9326-b4e5704b7089,BUS426,10:02:00,10:02:00,5190.98,to Purdue Campus University Hall,Stadium Parking Lot on Victory Dr(@Shelter):BUS426,40.4359850547305,-86.9186553012523
16C,057c36a0-675e-480d-9722-5e5a8d37f4d3,BUS213S,10:04:10,10:04:10,455.47,to Purdue Airport,Steven Beering Dr & Tower Dr (SW of): BUS213S,40.432584,-86.919271
16C,25f9f34c-950c-4356-8002-2646ca363806,BUS440,10:04:30,10:04:30,1325.55,to Purdue Campus University Hall,Harrison St & Russell Dr (SW Corner): BUS440,40.4202740144893,-86.9197617125369
16C,25f9f34c-950c-4356-8002-2646ca363806,BUS324,10:06:00,10:06:00,1763.91,to Purdue Campus University Hall,Lynn Hall on Harrison St: BUS324,40.420295,-86.91458
16C,057c36a0-675e-480d-9722-5e5a8d37f4d3,BUS439,10:06:24,10:06:24,926.23,to Purdue Airport,Russell St & 4th St (NW Corner): BUS439,40.4283480709001,-86.9191991439452
16C,057c36a0-675e-480d-9722-5e5a8d37f4d3,BUS804,10:07:28,10:07:28,1148.5,to Purdue Airport,Russell St & 2nd (NW Corner): BUS804,40.4263479523196,-86.9192270252577
16C,25f9f34c-950c-4356-8002-2646ca363806,BUS294,10:09:04,10:09:04,2350.74,to Purdue Campus University Hall,Grant Street Station Apts (@ Shelter): BUS294,40.4195851803601,-86.9102195739364
16C,057c36a0-675e-480d-9722-5e5a8d37f4d3,BUS899,10:10:06,10:10:06,1701.32,to Purdue Airport,Morgan & Jischke Dr (SW Corner): BUS899,40.4234215869559,-86.9217934859868
16C,25f9f34c-950c-4356-8002-2646ca363806,BUS321,10:10:29,10:10:29,2621.94,to Purdue Campus University Hall,Grant St & Wood St (SE Corner): BUS320,40.4220254970804,-86.910270715372
16C,25f9f34c-950c-4356-8002-2646ca363806,BUS154,10:11:08,10:11:08,2746.19,to Purdue Campus University Hall,Young Hall on Grant St (East): BUS154,40.4231436139921,-86.9102643947257
16C,057c36a0-675e-480d-9722-5e5a8d37f4d3,BUS900,10:11:28,10:11:28,1986.19,to Purdue Airport,Discovery Learning Center:  BUS900,40.4208681994858,-86.9219094887933
16C,057c36a0-675e-480d-9722-5e5a8d37f4d3,BUS543NE,10:12:01,10:12:01,2101.05,to Purdue Airport,Gates Rd & Nimitz Dr (NE Corner): BUS543NE,40.4209102569667,-86.9231100083404
16C,25f9f34c-950c-4356-8002-2646ca363806,BUS184,10:13:06,10:13:06,3121.19,to Purdue Campus University Hall,Grissom Hall on Grant St (at Shelter): BUS184,40.4265181974481,-86.9103069251959
16C,057c36a0-675e-480d-9722-5e5a8d37f4d3,BUS249,10:14:00,10:14:00,2516.92,to Purdue Airport,Discovery Parking Lot (at Shelter): BUS249,40.4194143664488,-86.9240948214588
16C,057c36a0-675e-480d-9722-5e5a8d37f4d3,BUS543SE,10:14:43,10:14:43,2696.65,to Purdue Airport,Gates Rd & Nimitz Dr (SE Corner): BUS543SE,40.4207538802026,-86.9232279055134
16C,25f9f34c-950c-4356-8002-2646ca363806,BUS295,10:15:00,10:15:00,3482.81,to Purdue Campus University Hall,Wang Hall on Northwestern (at Crosswalk): BUS295,40.4293452459183,-86.9117512948365
16C,25f9f34c-950c-4356-8002-2646ca363806,BUS530,10:16:02,10:16:02,3735.39,to Purdue Campus University Hall,Northwestern Ave & Stadium Ave (McDonalds): BUS530,40.431117,-86.913622
16C,25f9f34c-950c-4356-8002-2646ca363806,BUS105,10:16:41,10:16:41,3896.74,to Purdue Campus University Hall,Northwestern Ave & Evergreen St(SE Corner): BUS105,40.432242,-86.914828
16C,25f9f34c-950c-4356-8002-2646ca363806,BUS284,10:17:30,10:17:30,4095.29,to Purdue Campus University Hall,Northwestern Ave & Meridian St(SE Corner): BUS284,40.4340002199411,-86.9151375839196
16C,25f9f34c-950c-4356-8002-2646ca363806,BUS203,10:18:45,10:18:45,4400.4,to Purdue Campus University Hall,Northwestern Ave & Northridge Dr(SE Corner):BUS203,40.436737,-86.915429
16C,057c36a0-675e-480d-9722-5e5a8d37f4d3,BUS146,10:20:00,10:20:00,4000.05,to Purdue Airport,Aviation Technology Bldg: BUS146,40.4165685425144,-86.9298910754854
16C,104d9af1-67e7-4756-a931-3a04251a1132,BUS146,10:20:00,10:20:00,0.0,to Purdue Campus University Hall,Aviation Technology Bldg: BUS146,40.4165685425144,-86.9298910754854
16C,25f9f34c-950c-4356-8002-2646ca363806,BUS426,10:22:00,10:22:00,5190.98,to Purdue Campus University Hall,Stadium Parking Lot on Victory Dr(@Shelter):BUS426,40.4359850547305,-86.9186553012523
16C,093b5ca4-ab0b-4445-9b28-38d4cfc09faf,BUS426,10:22:00,10:22:00,0.0,to Purdue Airport,Stadium Parking Lot on Victory Dr(@Shelter):BUS426,40.4359850547305,-86.9186553012523
16C,093b5ca4-ab0b-4445-9b28-38d4cfc09faf,BUS213S,10:24:10,10:24:10,455.47,to Purdue Airport,Steven Beering Dr & Tower Dr (SW of): BUS213S,40.432584,-86.919271
16C,104d9af1-67e7-4756-a931-3a04251a1132,BUS440,10:24:30,10:24:30,1325.55,to Purdue Campus University Hall,Harrison St & Russell Dr (SW Corner): BUS440,40.4202740144893,-86.9197617125369
16C,104d9af1-67e7-4756-a931-3a04251a1132,BUS324,10:26:00,10:26:00,1763.91,to Purdue Campus University Hall,Lynn Hall on Harrison St: BUS324,40.420295,-86.91458
16C,093b5ca4-ab0b-4445-9b28-38d4cfc09faf,BUS439,10:26:24,10:26:24,926.23,to Purdue Airport,Russell St & 4th St (NW Corner): BUS439,40.4283480709001,-86.9191991439452
16C,093b5ca4-ab0b-4445-9b28-38d4cfc09faf,BUS804,10:27:28,10:27:28,1148.5,to Purdue Airport,Russell St & 2nd (NW Corner): BUS804,40.4263479523196,-86.9192270252577
16C,104d9af1-67e7-4756-a931-3a04251a1132,BUS294,10:29:04,10:29:04,2350.74,to Purdue Campus University Hall,Grant Street Station Apts (@ Shelter): BUS294,40.4195851803601,-86.9102195739364
16C,093b5ca4-ab0b-4445-9b28-38d4cfc09faf,BUS899,10:30:06,10:30:06,1701.32,to Purdue Airport,Morgan & Jischke Dr (SW Corner): BUS899,40.4234215869559,-86.9217934859868
16C,104d9af1-67e7-4756-a931-3a04251a1132,BUS321,10:30:29,10:30:29,2621.94,to Purdue Campus University Hall,Grant St & Wood St (SE Corner): BUS320,40.4220254970804,-86.910270715372
16C,104d9af1-67e7-4756-a931-3a04251a1132,BUS154,10:31:08,10:31:08,2746.19,to Purdue Campus University Hall,Young Hall on Grant St (East): BUS154,40.4231436139921,-86.9102643947257
16C,093b5ca4-ab0b-4445-9b28-38d4cfc09faf,BUS900,10:31:28,10:31:28,1986.19,to Purdue Airport,Discovery Learning Center:  BUS900,40.4208681994858,-86.9219094887933
16C,093b5ca4-ab0b-4445-9b28-38d4cfc09faf,BUS543NE,10:32:01,10:32:01,2101.05,to Purdue Airport,Gates Rd & Nimitz Dr (NE Corner): BUS543NE,40.4209102569667,-86.9231100083404
16C,104d9af1-67e7-4756-a931-3a04251a1132,BUS184,10:33:06,10:33:06,3121.19,to Purdue Campus University Hall,Grissom Hall on Grant St (at Shelter): BUS184,40.4265181974481,-86.9103069251959
16C,093b5ca4-ab0b-4445-9b28-38d4cfc09faf,BUS249,10:34:00,10:34:00,2516.92,to Purdue Airport,Discovery Parking Lot (at Shelter): BUS249,40.4194143664488,-86.9240948214588
16C,093b5ca4-ab0b-4445-9b28-38d4cfc09faf,BUS543SE,10:34:43,10:34:43,2696.65,to Purdue Airport,Gates Rd & Nimitz Dr (SE Corner): BUS543SE,40.4207538802026,-86.9232279055134
16C,104d9af1-67e7-4756-a931-3a04251a1132,BUS295,10:35:00,10:35:00,3482.81,to Purdue Campus University Hall,Wang Hall on Northwestern (at Crosswalk): BUS295,40.4293452459183,-86.9117512948365
16C,104d9af1-67e7-4756-a931-3a04251a1132,BUS530,10:36:02,10:36:02,3735.39,to Purdue Campus University Hall,Northwestern Ave & Stadium Ave (McDonalds): BUS530,40.431117,-86.913622
16C,104d9af1-67e7-4756-a931-3a04251a1132,BUS105,10:36:41,10:36:41,3896.74,to Purdue Campus University Hall,Northwestern Ave & Evergreen St(SE Corner): BUS105,40.432242,-86.914828
16C,104d9af1-67e7-4756-a931-3a04251a1132,BUS284,10:37:30,10:37:30,4095.29,to Purdue Campus University Hall,Northwestern Ave & Meridian St(SE Corner): BUS284,40.4340002199411,-86.9151375839196
16C,104d9af1-67e7-4756-a931-3a04251a1132,BUS203,10:38:45,10:38:45,4400.4,to Purdue Campus University Hall,Northwestern Ave & Northridge Dr(SE Corner):BUS203,40.436737,-86.915429
16C,093b5ca4-ab0b-4445-9b28-38d4cfc09faf,BUS146,10:40:00,10:40:00,4000.05,to Purdue Airport,Aviation Technology Bldg: BUS146,40.4165685425144,-86.9298910754854
16C,69f97059-06cb-492e-a485-985e35261cf5,BUS146,10:40:00,10:40:00,0.0,to Purdue Campus University Hall,Aviation Technology Bldg: BUS146,40.4165685425144,-86.9298910754854
16C,104d9af1-67e7-4756-a931-3a04251a1132,BUS426,10:42:00,10:42:00,5190.98,to Purdue Campus University Hall,Stadium Parking Lot on Victory Dr(@Shelter):BUS426,40.4359850547305,-86.9186553012523
16C,7f404cba-6a83-4564-a795-43495d6e922c,BUS426,10:42:00,10:42:00,0.0,to Purdue Airport,Stadium Parking Lot on Victory Dr(@Shelter):BUS426,40.4359850547305,-86.9186553012523
16C,7f404cba-6a83-4564-a795-43495d6e922c,BUS213S,10:44:10,10:44:10,455.47,to Purdue Airport,Steven Beering Dr & Tower Dr (SW of): BUS213S,40.432584,-86.919271
16C,69f97059-06cb-492e-a485-985e35261cf5,BUS440,10:44:30,10:44:30,1325.55,to Purdue Campus University Hall,Harrison St & Russell Dr (SW Corner): BUS440,40.4202740144893,-86.9197617125369
16C,69f97059-06cb-492e-a485-985e35261cf5,BUS324,10:46:00,10:46:00,1763.91,to Purdue Campus University Hall,Lynn Hall on Harrison St: BUS324,40.420295,-86.91458
16C,7f404cba-6a83-4564-a795-43495d6e922c,BUS439,10:46:24,10:46:24,926.23,to Purdue Airport,Russell St & 4th St (NW Corner): BUS439,40.4283480709001,-86.9191991439452
16C,7f404cba-6a83-4564-a795-43495d6e922c,BUS804,10:47:28,10:47:28,1148.5,to Purdue Airport,Russell St & 2nd (NW Corner): BUS804,40.4263479523196,-86.9192270252577
16C,69f97059-06cb-492e-a485-985e35261cf5,BUS294,10:49:04,10:49:04,2350.74,to Purdue Campus University Hall,Grant Street Station Apts (@ Shelter): BUS294,40.4195851803601,-86.9102195739364
16C,7f404cba-6a83-4564-a795-43495d6e922c,BUS899,10:50:06,10:50:06,1701.32,to Purdue Airport,Morgan & Jischke Dr (SW Corner): BUS899,40.4234215869559,-86.9217934859868
16C,69f97059-06cb-492e-a485-985e35261cf5,BUS321,10:50:29,10:50:29,2621.94,to Purdue Campus University Hall,Grant St & Wood St (SE Corner): BUS320,40.4220254970804,-86.910270715372
16C,69f97059-06cb-492e-a485-985e35261cf5,BUS154,10:51:08,10:51:08,2746.19,to Purdue Campus University Hall,Young Hall on Grant St (East): BUS154,40.4231436139921,-86.9102643947257
16C,7f404cba-6a83-4564-a795-43495d6e922c,BUS900,10:51:28,10:51:28,1986.19,to Purdue Airport,Discovery Learning Center:  BUS900,40.4208681994858,-86.9219094887933
16C,7f404cba-6a83-4564-a795-43495d6e922c,BUS543NE,10:52:01,10:52:01,2101.05,to Purdue Airport,Gates Rd & Nimitz Dr (NE Corner): BUS543NE,40.4209102569667,-86.9231100083404
16C,69f97059-06cb-492e-a485-985e35261cf5,BUS184,10:53:06,10:53:06,3121.19,to Purdue Campus University Hall,Grissom Hall on Grant St (at Shelter): BUS184,40.4265181974481,-86.9103069251959
16C,7f404cba-6a83-4564-a795-43495d6e922c,BUS249,10:54:00,10:54:00,2516.92,to Purdue Airport,Discovery Parking Lot (at Shelter): BUS249,40.4194143664488,-86.9240948214588
16C,7f404cba-6a83-4564-a795-43495d6e922c,BUS543SE,10:54:43,10:54:43,2696.65,to Purdue Airport,Gates Rd & Nimitz Dr (SE Corner): BUS543SE,40.4207538802026,-86.9232279055134
16C,69f97059-06cb-492e-a485-985e35261cf5,BUS295,10:55:00,10:55:00,3482.81,to Purdue Campus University Hall,Wang Hall on Northwestern (at Crosswalk): BUS295,40.4293452459183,-86.9117512948365
16C,69f97059-06cb-492e-a485-985e35261cf5,BUS530,10:56:02,10:56:02,3735.39,to Purdue Campus University Hall,Northwestern Ave & Stadium Ave (McDonalds): BUS530,40.431117,-86.913622
16C,69f97059-06cb-492e-a485-985e35261cf5,BUS105,10:56:41,10:56:41,3896.74,to Purdue Campus University Hall,Northwestern Ave & Evergreen St(SE Corner): BUS105,40.432242,-86.914828
16C,69f97059-06cb-492e-a485-985e35261cf5,BUS284,10:57:30,10:57:30,4095.29,to Purdue Campus University Hall,Northwestern Ave & Meridian St(SE Corner): BUS284,40.4340002199411,-86.9151375839196
16C,69f97059-06cb-492e-a485-985e35261cf5,BUS203,10:58:45,10:58:45,4400.4,to Purdue Campus University Hall,Northwestern Ave & Northridge Dr(SE Corner):BUS203,40.436737,-86.915429
16C,7f404cba-6a83-4564-a795-43495d6e922c,BUS146,11:00:00,11:00:00,4000.05,to Purdue Airport,Aviation Technology Bldg: BUS146,40.4165685425144,-86.9298910754854
16C,c5567577-309d-4cc0-b9a7-1cdf10bcf814,BUS146,11:00:00,11:00:00,0.0,to Purdue Campus University Hall,Aviation Technology Bldg: BUS146,40.4165685425144,-86.9298910754854
16C,1c8013c3-d7fa-455e-a5d0-1128cf8794d5,BUS426,11:02:00,11:02:00,0.0,to Purdue Airport,Stadium Parking Lot on Victory Dr(@Shelter):BUS426,40.4359850547305,-86.9186553012523
16C,69f97059-06cb-492e-a485-985e35261cf5,BUS426,11:02:00,11:02:00,5190.98,to Purdue Campus University Hall,Stadium Parking Lot on Victory Dr(@Shelter):BUS426,40.4359850547305,-86.9186553012523
16C,1c8013c3-d7fa-455e-a5d0-1128cf8794d5,BUS213S,11:04:10,11:04:10,455.47,to Purdue Airport,Steven Beering Dr & Tower Dr (SW of): BUS213S,40.432584,-86.919271
16C,c5567577-309d-4cc0-b9a7-1cdf10bcf814,BUS440,11:04:30,11:04:30,1325.55,to Purdue Campus University Hall,Harrison St & Russell Dr (SW Corner): BUS440,40.4202740144893,-86.9197617125369
16C,c5567577-309d-4cc0-b9a7-1cdf10bcf814,BUS324,11:06:00,11:06:00,1763.91,to Purdue Campus University Hall,Lynn Hall on Harrison St: BUS324,40.420295,-86.91458
16C,1c8013c3-d7fa-455e-a5d0-1128cf8794d5,BUS439,11:06:24,11:06:24,926.23,to Purdue Airport,Russell St & 4th St (NW Corner): BUS439,40.4283480709001,-86.9191991439452
16C,1c8013c3-d7fa-455e-a5d0-1128cf8794d5,BUS804,11:07:28,11:07:28,1148.5,to Purdue Airport,Russell St & 2nd (NW Corner): BUS804,40.4263479523196,-86.9192270252577
16C,c5567577-309d-4cc0-b9a7-1cdf10bcf814,BUS294,11:09:04,11:09:04,2350.74,to Purdue Campus University Hall,Grant Street Station Apts (@ Shelter): BUS294,40.4195851803601,-86.9102195739364
16C,1c8013c3-d7fa-455e-a5d0-1128cf8794d5,BUS899,11:10:06,11:10:06,1701.32,to Purdue Airport,Morgan & Jischke Dr (SW Corner): BUS899,40.4234215869559,-86.9217934859868
16C,c5567577-309d-4cc0-b9a7-1cdf10bcf814,BUS321,11:10:29,11:10:29,2621.94,to Purdue Campus University Hall,Grant St & Wood St (SE Corner): BUS320,40.4220254970804,-86.910270715372
16C,c5567577-309d-4cc0-b9a7-1cdf10bcf814,BUS154,11:11:08,11:11:08,2746.19,to Purdue Campus University Hall,Young Hall on Grant St (East): BUS154,40.4231436139921,-86.9102643947257
16C,1c8013c3-d7fa-455e-a5d0-1128cf8794d5,BUS900,11:11:28,11:11:28,1986.19,to Purdue Airport,Discovery Learning Center:  BUS900,40.4208681994858,-86.9219094887933
16C,1c8013c3-d7fa-455e-a5d0-1128cf8794d5,BUS543NE,11:12:01,11:12:01,2101.05,to Purdue Airport,Gates Rd & Nimitz Dr (NE Corner): BUS543NE,40.4209102569667,-86.9231100083404
16C,c5567577-309d-4cc0-b9a7-1cdf10bcf814,BUS184,11:13:06,11:13:06,3121.19,to Purdue Campus University Hall,Grissom Hall on Grant St (at Shelter): BUS184,40.4265181974481,-86.9103069251959
16C,1c8013c3-d7fa-455e-a5d0-1128cf8794d5,BUS249,11:14:00,11:14:00,2516.92,to Purdue Airport,Discovery Parking Lot (at Shelter): BUS249,40.4194143664488,-86.9240948214588
16C,1c8013c3-d7fa-455e-a5d0-1128cf8794d5,BUS543SE,11:14:43,11:14:43,2696.65,to Purdue Airport,Gates Rd & Nimitz Dr (SE Corner): BUS543SE,40.4207538802026,-86.9232279055134
16C,c5567577-309d-4cc0-b9a7-1cdf10bcf814,BUS295,11:15:00,11:15:00,3482.81,to Purdue Campus University Hall,Wang Hall on Northwestern (at Crosswalk): BUS295,40.4293452459183,-86.9117512948365
16C,c5567577-309d-4cc0-b9a7-1cdf10bcf814,BUS530,11:16:02,11:16:02,3735.39,to Purdue Campus University Hall,Northwestern Ave & Stadium Ave (McDonalds): BUS530,40.431117,-86.913622
16C,c5567577-309d-4cc0-b9a7-1cdf10bcf814,BUS105,11:16:41,11:16:41,3896.74,to Purdue Campus University Hall,Northwestern Ave & Evergreen St(SE Corner): BUS105,40.432242,-86.914828
16C,c5567577-309d-4cc0-b9a7-1cdf10bcf814,BUS284,11:17:30,11:17:30,4095.29,to Purdue Campus University Hall,Northwestern Ave & Meridian St(SE Corner): BUS284,40.4340002199411,-86.9151375839196
16C,c5567577-309d-4cc0-b9a7-1cdf10bcf814,BUS203,11:18:45,11:18:45,4400.4,to Purdue Campus University Hall,Northwestern Ave & Northridge Dr(SE Corner):BUS203,40.436737,-86.915429
16C,1c8013c3-d7fa-455e-a5d0-1128cf8794d5,BUS146,11:20:00,11:20:00,4000.05,to Purdue Airport,Aviation Technology Bldg: BUS146,40.4165685425144,-86.9298910754854
16C,b28e6d56-6e5a-482a-ad20-b752220a7bb7,BUS426,11:22:00,11:22:00,0.0,to Purdue Airport,Stadium Parking Lot on Victory Dr(@Shelter):BUS426,40.4359850547305,-86.9186553012523
16C,c5567577-309d-4cc0-b9a7-1cdf10bcf814,BUS426,11:22:00,11:22:00,5190.98,to Purdue Campus University Hall,Stadium Parking Lot on Victory Dr(@Shelter):BUS426,40.4359850547305,-86.9186553012523
16C,b28e6d56-6e5a-482a-ad20-b752220a7bb7,BUS213S,11:24:10,11:24:10,455.47,to Purdue Airport,Steven Beering Dr & Tower Dr (SW of): BUS213S,40.432584,-86.919271
16C,b28e6d56-6e5a-482a-ad20-b752220a7bb7,BUS439,11:26:24,11:26:24,926.23,to Purdue Airport,Russell St & 4th St (NW Corner): BUS439,40.4283480709001,-86.9191991439452
16C,b28e6d56-6e5a-482a-ad20-b752220a7bb7,BUS804,11:27:28,11:27:28,1148.5,to Purdue Airport,Russell St & 2nd (NW Corner): BUS804,40.4263479523196,-86.9192270252577
16C,b28e6d56-6e5a-482a-ad20-b752220a7bb7,BUS899,11:30:06,11:30:06,1701.32,to Purdue Airport,Morgan & Jischke Dr (SW Corner): BUS899,40.4234215869559,-86.9217934859868
16C,b28e6d56-6e5a-482a-ad20-b752220a7bb7,BUS900,11:31:28,11:31:28,1986.19,to Purdue Airport,Discovery Learning Center:  BUS900,40.4208681994858,-86.9219094887933
16C,b28e6d56-6e5a-482a-ad20-b752220a7bb7,BUS543NE,11:32:01,11:32:01,2101.05,to Purdue Airport,Gates Rd & Nimitz Dr (NE Corner): BUS543NE,40.4209102569667,-86.9231100083404
16C,b28e6d56-6e5a-482a-ad20-b752220a7bb7,BUS249,11:34:00,11:34:00,2516.92,to Purdue Airport,Discovery Parking Lot (at Shelter): BUS249,40.4194143664488,-86.9240948214588
16C,b28e6d56-6e5a-482a-ad20-b752220a7bb7,BUS543SE,11:34:43,11:34:43,2696.65,to Purdue Airport,Gates Rd & Nimitz Dr (SE Corner): BUS543SE,40.4207538802026,-86.9232279055134
16C,b28e6d56-6e5a-482a-ad20-b752220a7bb7,BUS146,11:40:00,11:40:00,4000.05,to Purdue Airport,Aviation Technology Bldg: BUS146,40.4165685425144,-86.9298910754854
16C,db37dbed-0f91-4e03-91fe-c7f70b1c961a,BUS146,11:40:00,11:40:00,0.0,to Purdue Campus University Hall,Aviation Technology Bldg: BUS146,40.4165685425144,-86.9298910754854
16C,db37dbed-0f91-4e03-91fe-c7f70b1c961a,BUS440,11:44:30,11:44:30,1325.55,to Purdue Campus University Hall,Harrison St & Russell Dr (SW Corner): BUS440,40.4202740144893,-86.9197617125369
16C,db37dbed-0f91-4e03-91fe-c7f70b1c961a,BUS324,11:46:00,11:46:00,1763.91,to Purdue Campus University Hall,Lynn Hall on Harrison St: BUS324,40.420295,-86.91458
16C,db37dbed-0f91-4e03-91fe-c7f70b1c961a,BUS294,11:49:04,11:49:04,2350.74,to Purdue Campus University Hall,Grant Street Station Apts (@ Shelter): BUS294,40.4195851803601,-86.9102195739364
16C,db37dbed-0f91-4e03-91fe-c7f70b1c961a,BUS321,11:50:29,11:50:29,2621.94,to Purdue Campus University Hall,Grant St & Wood St (SE Corner): BUS320,40.4220254970804,-86.910270715372
16C,db37dbed-0f91-4e03-91fe-c7f70b1c961a,BUS154,11:51:08,11:51:08,2746.19,to Purdue Campus University Hall,Young Hall on Grant St (East): BUS154,40.4231436139921,-86.9102643947257
16C,db37dbed-0f91-4e03-91fe-c7f70b1c961a,BUS184,11:53:06,11:53:06,3121.19,to Purdue Campus University Hall,Grissom Hall on Grant St (at Shelter): BUS184,40.4265181974481,-86.9103069251959
16C,db37dbed-0f91-4e03-91fe-c7f70b1c961a,BUS295,11:55:00,11:55:00,3482.81,to Purdue Campus University Hall,Wang Hall on Northwestern (at Crosswalk): BUS295,40.4293452459183,-86.9117512948365
16C,db37dbed-0f91-4e03-91fe-c7f70b1c961a,BUS530,11:56:02,11:56:02,3735.39,to Purdue Campus University Hall,Northwestern Ave & Stadium Ave (McDonalds): BUS530,40.431117,-86.913622
16C,db37dbed-0f91-4e03-91fe-c7f70b1c961a,BUS105,11:56:41,11:56:41,3896.74,to Purdue Campus University Hall,Northwestern Ave & Evergreen St(SE Corner): BUS105,40.432242,-86.914828
16C,db37dbed-0f91-4e03-91fe-c7f70b1c961a,BUS284,11:57:30,11:57:30,4095.29,to Purdue Campus University Hall,Northwestern Ave & Meridian St(SE Corner): BUS284,40.4340002199411,-86.9151375839196
16C,db37dbed-0f91-4e03-91fe-c7f70b1c961a,BUS203,11:58:45,11:58:45,4400.4,to Purdue Campus University Hall,Northwestern Ave & Northridge Dr(SE Corner):BUS203,40.436737,-86.915429
16C,d702cd36-f816-4fa4-84ef-01661bc792f9,BUS426,12:02:00,12:02:00,0.0,to Purdue Airport,Stadium Parking Lot on Victory Dr(@Shelter):BUS426,40.4359850547305,-86.9186553012523
16C,db37dbed-0f91-4e03-91fe-c7f70b1c961a,BUS426,12:02:00,12:02:00,5190.98,to Purdue Campus University Hall,Stadium Parking Lot on Victory Dr(@Shelter):BUS426,40.4359850547305,-86.9186553012523
16C,d702cd36-f816-4fa4-84ef-01661bc792f9,BUS213S,12:04:10,12:04:10,455.47,to Purdue Airport,Steven Beering Dr & Tower Dr (SW of): BUS213S,40.432584,-86.919271
16C,d702cd36-f816-4fa4-84ef-01661bc792f9,BUS439,12:06:24,12:06:24,926.23,to Purdue Airport,Russell St & 4th St (NW Corner): BUS439,40.4283480709001,-86.9191991439452
16C,d702cd36-f816-4fa4-84ef-01661bc792f9,BUS804,12:07:28,12:07:28,1148.5,to Purdue Airport,Russell St & 2nd (NW Corner): BUS804,40.4263479523196,-86.9192270252577
16C,d702cd36-f816-4fa4-84ef-01661bc792f9,BUS899,12:10:06,12:10:06,1701.32,to Purdue Airport,Morgan & Jischke Dr (SW Corner): BUS899,40.4234215869559,-86.9217934859868
16C,d702cd36-f816-4fa4-84ef-01661bc792f9,BUS900,12:11:28,12:11:28,1986.19,to Purdue Airport,Discovery Learning Center:  BUS900,40.4208681994858,-86.9219094887933
16C,d702cd36-f816-4fa4-84ef-01661bc792f9,BUS543NE,12:12:01,12:12:01,2101.05,to Purdue Airport,Gates Rd & Nimitz Dr (NE Corner): BUS543NE,40.4209102569667,-86.9231100083404
16C,d702cd36-f816-4fa4-84ef-01661bc792f9,BUS249,12:14:00,12:14:00,2516.92,to Purdue Airport,Discovery Parking Lot (at Shelter): BUS249,40.4194143664488,-86.9240948214588
16C,d702cd36-f816-4fa4-84ef-01661bc792f9,BUS543SE,12:14:43,12:14:43,2696.65,to Purdue Airport,Gates Rd & Nimitz Dr (SE Corner): BUS543SE,40.4207538802026,-86.9232279055134
16C,d702cd36-f816-4fa4-84ef-01661bc792f9,BUS146,12:20:00,12:20:00,4000.05,to Purdue Airport,Aviation Technology Bldg: BUS146,40.4165685425144,-86.9298910754854
16C,36fc6c4a-8adb-465b-a99d-c3d2b83a490e,BUS146,12:20:00,12:20:00,0.0,to Purdue Campus University Hall,Aviation Technology Bldg: BUS146,40.4165685425144,-86.9298910754854
16C,36fc6c4a-8adb-465b-a99d-c3d2b83a490e,BUS440,12:24:30,12:24:30,1325.55,to Purdue Campus University Hall,Harrison St & Russell Dr (SW Corner): BUS440,40.4202740144893,-86.9197617125369
16C,36fc6c4a-8adb-465b-a99d-c3d2b83a490e,BUS324,12:26:00,12:26:00,1763.91,to Purdue Campus University Hall,Lynn Hall on Harrison St: BUS324,40.420295,-86.91458
16C,36fc6c4a-8adb-465b-a99d-c3d2b83a490e,BUS294,12:29:04,12:29:04,2350.74,to Purdue Campus University Hall,Grant Street Station Apts (@ Shelter): BUS294,40.4195851803601,-86.9102195739364
16C,36fc6c4a-8adb-465b-a99d-c3d2b83a490e,BUS321,12:30:29,12:30:29,2621.94,to Purdue Campus University Hall,Grant St & Wood St (SE Corner): BUS320,40.4220254970804,-86.910270715372
16C,36fc6c4a-8adb-465b-a99d-c3d2b83a490e,BUS154,12:31:08,12:31:08,2746.19,to Purdue Campus University Hall,Young Hall on Grant St (East): BUS154,40.4231436139921,-86.9102643947257
16C,36fc6c4a-8adb-465b-a99d-c3d2b83a490e,BUS184,12:33:06,12:33:06,3121.19,to Purdue Campus University Hall,Grissom Hall on Grant St (at Shelter): BUS184,40.4265181974481,-86.9103069251959
16C,36fc6c4a-8adb-465b-a99d-c3d2b83a490e,BUS295,12:35:00,12:35:00,3482.81,to Purdue Campus University Hall,Wang Hall on Northwestern (at Crosswalk): BUS295,40.4293452459183,-86.9117512948365
16C,36fc6c4a-8adb-465b-a99d-c3d2b83a490e,BUS530,12:36:02,12:36:02,3735.39,to Purdue Campus University Hall,Northwestern Ave & Stadium Ave (McDonalds): BUS530,40.431117,-86.913622
16C,36fc6c4a-8adb-465b-a99d-c3d2b83a490e,BUS105,12:36:41,12:36:41,3896.74,to Purdue Campus University Hall,Northwestern Ave & Evergreen St(SE Corner): BUS105,40.432242,-86.914828
16C,36fc6c4a-8adb-465b-a99d-c3d2b83a490e,BUS284,12:37:30,12:37:30,4095.29,to Purdue Campus University Hall,Northwestern Ave & Meridian St(SE Corner): BUS284,40.4340002199411,-86.9151375839196
16C,36fc6c4a-8adb-465b-a99d-c3d2b83a490e,BUS203,12:38:45,12:38:45,4400.4,to Purdue Campus University Hall,Northwestern Ave & Northridge Dr(SE Corner):BUS203,40.436737,-86.915429
16C,36fc6c4a-8adb-465b-a99d-c3d2b83a490e,BUS426,12:42:00,12:42:00,5190.98,to Purdue Campus University Hall,Stadium Parking Lot on Victory Dr(@Shelter):BUS426,40.4359850547305,-86.9186553012523
16C,862a38ea-7fda-471e-ac90-e83b332e374a,BUS426,12:42:00,12:42:00,0.0,to Purdue Airport,Stadium Parking Lot on Victory Dr(@Shelter):BUS426,40.4359850547305,-86.9186553012523
16C,862a38ea-7fda-471e-ac90-e83b332e374a,BUS213S,12:44:10,12:44:10,455.47,to Purdue Airport,Steven Beering Dr & Tower Dr (SW of): BUS213S,40.432584,-86.919271
16C,862a38ea-7fda-471e-ac90-e83b332e374a,BUS439,12:46:24,12:46:24,926.23,to Purdue Airport,Russell St & 4th St (NW Corner): BUS439,40.4283480709001,-86.9191991439452
16C,862a38ea-7fda-471e-ac90-e83b332e374a,BUS804,12:47:28,12:47:28,1148.5,to Purdue Airport,Russell St & 2nd (NW Corner): BUS804,40.4263479523196,-86.9192270252577
16C,862a38ea-7fda-471e-ac90-e83b332e374a,BUS899,12:50:06,12:50:06,1701.32,to Purdue Airport,Morgan & Jischke Dr (SW Corner): BUS899,40.4234215869559,-86.9217934859868
16C,862a38ea-7fda-471e-ac90-e83b332e374a,BUS900,12:51:28,12:51:28,1986.19,to Purdue Airport,Discovery Learning Center:  BUS900,40.4208681994858,-86.9219094887933
16C,862a38ea-7fda-471e-ac90-e83b332e374a,BUS543NE,12:52:01,12:52:01,2101.05,to Purdue Airport,Gates Rd & Nimitz Dr (NE Corner): BUS543NE,40.4209102569667,-86.9231100083404
16C,862a38ea-7fda-471e-ac90-e83b332e374a,BUS249,12:54:00,12:54:00,2516.92,to Purdue Airport,Discovery Parking Lot (at Shelter): BUS249,40.4194143664488,-86.9240948214588
16C,862a38ea-7fda-471e-ac90-e83b332e374a,BUS543SE,12:54:43,12:54:43,2696.65,to Purdue Airport,Gates Rd & Nimitz Dr (SE Corner): BUS543SE,40.4207538802026,-86.9232279055134
16C,84c9a1b9-5d64-4691-a921-55a08655b343,BUS146,13:00:00,13:00:00,0.0,to Purdue Campus University Hall,Aviation Technology Bldg: BUS146,40.4165685425144,-86.9298910754854
16C,862a38ea-7fda-471e-ac90-e83b332e374a,BUS146,13:00:00,13:00:00,4000.05,to Purdue Airport,Aviation Technology Bldg: BUS146,40.4165685425144,-86.9298910754854
16C,84c9a1b9-5d64-4691-a921-55a08655b343,BUS440,13:04:30,13:04:30,1325.55,to Purdue Campus University Hall,Harrison St & Russell Dr (SW Corner): BUS440,40.4202740144893,-86.9197617125369
16C,84c9a1b9-5d64-4691-a921-55a08655b343,BUS324,13:06:00,13:06:00,1763.91,to Purdue Campus University Hall,Lynn Hall on Harrison St: BUS324,40.420295,-86.91458
16C,84c9a1b9-5d64-4691-a921-55a08655b343,BUS294,13:09:04,13:09:04,2350.74,to Purdue Campus University Hall,Grant Street Station Apts (@ Shelter): BUS294,40.4195851803601,-86.9102195739364
16C,84c9a1b9-5d64-4691-a921-55a08655b343,BUS321,13:10:29,13:10:29,2621.94,to Purdue Campus University Hall,Grant St & Wood St (SE Corner): BUS320,40.4220254970804,-86.910270715372
16C,84c9a1b9-5d64-4691-a921-55a08655b343,BUS154,13:11:08,13:11:08,2746.19,to Purdue Campus University Hall,Young Hall on Grant St (East): BUS154,40.4231436139921,-86.9102643947257
16C,84c9a1b9-5d64-4691-a921-55a08655b343,BUS184,13:13:06,13:13:06,3121.19,to Purdue Campus University Hall,Grissom Hall on Grant St (at Shelter): BUS184,40.4265181974481,-86.9103069251959
16C,84c9a1b9-5d64-4691-a921-55a08655b343,BUS295,13:15:00,13:15:00,3482.81,to Purdue Campus University Hall,Wang Hall on Northwestern (at Crosswalk): BUS295,40.4293452459183,-86.9117512948365
16C,84c9a1b9-5d64-4691-a921-55a08655b343,BUS530,13:16:02,13:16:02,3735.39,to Purdue Campus University Hall,Northwestern Ave & Stadium Ave (McDonalds): BUS530,40.431117,-86.913622
16C,84c9a1b9-5d64-4691-a921-55a08655b343,BUS105,13:16:41,13:16:41,3896.74,to Purdue Campus University Hall,Northwestern Ave & Evergreen St(SE Corner): BUS105,40.432242,-86.914828
16C,84c9a1b9-5d64-4691-a921-55a08655b343,BUS284,13:17:30,13:17:30,4095.29,to Purdue Campus University Hall,Northwestern Ave & Meridian St(SE Corner): BUS284,40.4340002199411,-86.9151375839196
16C,84c9a1b9-5d64-4691-a921-55a08655b343,BUS203,13:18:45,13:18:45,4400.4,to Purdue Campus University Hall,Northwestern Ave & Northridge Dr(SE Corner):BUS203,40.436737,-86.915429
16C,f1543f44-8d96-4fb5-823b-60c2b3a3c47a,BUS426,13:22:00,13:22:00,0.0,to Purdue Airport,Stadium Parking Lot on Victory Dr(@Shelter):BUS426,40.4359850547305,-86.9186553012523
16C,84c9a1b9-5d64-4691-a921-55a08655b343,BUS426,13:22:00,13:22:00,5190.98,to Purdue Campus University Hall,Stadium Parking Lot on Victory Dr(@Shelter):BUS426,40.4359850547305,-86.9186553012523
16C,f1543f44-8d96-4fb5-823b-60c2b3a3c47a,BUS213S,13:24:10,13:24:10,455.47,to Purdue Airport,Steven Beering Dr & Tower Dr (SW of): BUS213S,40.432584,-86.919271
16C,f1543f44-8d96-4fb5-823b-60c2b3a3c47a,BUS439,13:26:24,13:26:24,926.23,to Purdue Airport,Russell St & 4th St (NW Corner): BUS439,40.4283480709001,-86.9191991439452
16C,f1543f44-8d96-4fb5-823b-60c2b3a3c47a,BUS804,13:27:28,13:27:28,1148.5,to Purdue Airport,Russell St & 2nd (NW Corner): BUS804,40.4263479523196,-86.9192270252577
16C,f1543f44-8d96-4fb5-823b-60c2b3a3c47a,BUS899,13:30:06,13:30:06,1701.32,to Purdue Airport,Morgan & Jischke Dr (SW Corner): BUS899,40.4234215869559,-86.9217934859868
16C,f1543f44-8d96-4fb5-823b-60c2b3a3c47a,BUS900,13:31:28,13:31:28,1986.19,to Purdue Airport,Discovery Learning Center:  BUS900,40.4208681994858,-86.9219094887933
16C,f1543f44-8d96-4fb5-823b-60c2b3a3c47a,BUS543NE,13:32:01,13:32:01,2101.05,to Purdue Airport,Gates Rd & Nimitz Dr (NE Corner): BUS543NE,40.4209102569667,-86.9231100083404
16C,f1543f44-8d96-4fb5-823b-60c2b3a3c47a,BUS249,13:34:00,13:34:00,2516.92,to Purdue Airport,Discovery Parking Lot (at Shelter): BUS249,40.4194143664488,-86.9240948214588
16C,f1543f44-8d96-4fb5-823b-60c2b3a3c47a,BUS543SE,13:34:43,13:34:43,2696.65,to Purdue Airport,Gates Rd & Nimitz Dr (SE Corner): BUS543SE,40.4207538802026,-86.9232279055134
16C,55683d9e-3249-431f-a22f-e5a4a292ed45,BUS146,13:40:00,13:40:00,0.0,to Purdue Campus University Hall,Aviation Technology Bldg: BUS146,40.4165685425144,-86.9298910754854
16C,f1543f44-8d96-4fb5-823b-60c2b3a3c47a,BUS146,13:40:00,13:40:00,4000.05,to Purdue Airport,Aviation Technology Bldg: BUS146,40.4165685425144,-86.9298910754854
16C,55683d9e-3249-431f-a22f-e5a4a292ed45,BUS440,13:44:30,13:44:30,1325.55,to Purdue Campus University Hall,Harrison St & Russell Dr (SW Corner): BUS440,40.4202740144893,-86.9197617125369
16C,55683d9e-3249-431f-a22f-e5a4a292ed45,BUS324,13:46:00,13:46:00,1763.91,to Purdue Campus University Hall,Lynn Hall on Harrison St: BUS324,40.420295,-86.91458
16C,55683d9e-3249-431f-a22f-e5a4a292ed45,BUS294,13:49:04,13:49:04,2350.74,to Purdue Campus University Hall,Grant Street Station Apts (@ Shelter): BUS294,40.4195851803601,-86.9102195739364
16C,55683d9e-3249-431f-a22f-e5a4a292ed45,BUS321,13:50:29,13:50:29,2621.94,to Purdue Campus University Hall,Grant St & Wood St (SE Corner): BUS320,40.4220254970804,-86.910270715372
16C,55683d9e-3249-431f-a22f-e5a4a292ed45,BUS154,13:51:08,13:51:08,2746.19,to Purdue Campus University Hall,Young Hall on Grant St (East): BUS154,40.4231436139921,-86.9102643947257
16C,55683d9e-3249-431f-a22f-e5a4a292ed45,BUS184,13:53:06,13:53:06,3121.19,to Purdue Campus University Hall,Grissom Hall on Grant St (at Shelter): BUS184,40.4265181974481,-86.9103069251959
16C,55683d9e-3249-431f-a22f-e5a4a292ed45,BUS295,13:55:00,13:55:00,3482.81,to Purdue Campus University Hall,Wang Hall on Northwestern (at Crosswalk): BUS295,40.4293452459183,-86.9117512948365
16C,55683d9e-3249-431f-a22f-e5a4a292ed45,BUS530,13:56:02,13:56:02,3735.39,to Purdue Campus University Hall,Northwestern Ave & Stadium Ave (McDonalds): BUS530,40.431117,-86.913622
16C,55683d9e-3249-431f-a22f-e5a4a292ed45,BUS105,13:56:41,13:56:41,3896.74,to Purdue Campus University Hall,Northwestern Ave & Evergreen St(SE Corner): BUS105,40.432242,-86.914828
16C,55683d9e-3249-431f-a22f-e5a4a292ed45,BUS284,13:57:30,13:57:30,4095.29,to Purdue Campus University Hall,Northwestern Ave & Meridian St(SE Corner): BUS284,40.4340002199411,-86.9151375839196
16C,55683d9e-3249-431f-a22f-e5a4a292ed45,BUS203,13:58:45,13:58:45,4400.4,to Purdue Campus University Hall,Northwestern Ave & Northridge Dr(SE Corner):BUS203,40.436737,-86.915429
16C,668692c1-2677-41da-bd3c-eeacf0b75c45,BUS146,14:00:00,14:00:00,0.0,to Purdue Campus University Hall,Aviation Technology Bldg: BUS146,40.4165685425144,-86.9298910754854
16C,5afb7bd8-fac4-4316-bc9d-fc67f9dd7839,BUS426,14:02:00,14:02:00,0.0,to Purdue Airport,Stadium Parking Lot on Victory Dr(@Shelter):BUS426,40.4359850547305,-86.9186553012523
16C,55683d9e-3249-431f-a22f-e5a4a292ed45,BUS426,14:02:00,14:02:00,5190.98,to Purdue Campus University Hall,Stadium Parking Lot on Victory Dr(@Shelter):BUS426,40.4359850547305,-86.9186553012523
16C,5afb7bd8-fac4-4316-bc9d-fc67f9dd7839,BUS213S,14:04:10,14:04:10,455.47,to Purdue Airport,Steven Beering Dr & Tower Dr (SW of): BUS213S,40.432584,-86.919271
16C,668692c1-2677-41da-bd3c-eeacf0b75c45,BUS440,14:04:30,14:04:30,1325.55,to Purdue Campus University Hall,Harrison St & Russell Dr (SW Corner): BUS440,40.4202740144893,-86.9197617125369
16C,668692c1-2677-41da-bd3c-eeacf0b75c45,BUS324,14:06:00,14:06:00,1763.91,to Purdue Campus University Hall,Lynn Hall on Harrison St: BUS324,40.420295,-86.91458
16C,5afb7bd8-fac4-4316-bc9d-fc67f9dd7839,BUS439,14:06:24,14:06:24,926.23,to Purdue Airport,Russell St & 4th St (NW Corner): BUS439,40.4283480709001,-86.9191991439452
16C,5afb7bd8-fac4-4316-bc9d-fc67f9dd7839,BUS804,14:07:28,14:07:28,1148.5,to Purdue Airport,Russell St & 2nd (NW Corner): BUS804,40.4263479523196,-86.9192270252577
16C,668692c1-2677-41da-bd3c-eeacf0b75c45,BUS294,14:09:04,14:09:04,2350.74,to Purdue Campus University Hall,Grant Street Station Apts (@ Shelter): BUS294,40.4195851803601,-86.9102195739364
16C,5afb7bd8-fac4-4316-bc9d-fc67f9dd7839,BUS899,14:10:06,14:10:06,1701.32,to Purdue Airport,Morgan & Jischke Dr (SW Corner): BUS899,40.4234215869559,-86.9217934859868
16C,668692c1-2677-41da-bd3c-eeacf0b75c45,BUS321,14:10:29,14:10:29,2621.94,to Purdue Campus University Hall,Grant St & Wood St (SE Corner): BUS320,40.4220254970804,-86.910270715372
16C,668692c1-2677-41da-bd3c-eeacf0b75c45,BUS154,14:11:08,14:11:08,2746.19,to Purdue Campus University Hall,Young Hall on Grant St (East): BUS154,40.4231436139921,-86.9102643947257
16C,5afb7bd8-fac4-4316-bc9d-fc67f9dd7839,BUS900,14:11:28,14:11:28,1986.19,to Purdue Airport,Discovery Learning Center:  BUS900,40.4208681994858,-86.9219094887933
16C,5afb7bd8-fac4-4316-bc9d-fc67f9dd7839,BUS543NE,14:12:01,14:12:01,2101.05,to Purdue Airport,Gates Rd & Nimitz Dr (NE Corner): BUS543NE,40.4209102569667,-86.9231100083404
16C,668692c1-2677-41da-bd3c-eeacf0b75c45,BUS184,14:13:06,14:13:06,3121.19,to Purdue Campus University Hall,Grissom Hall on Grant St (at Shelter): BUS184,40.4265181974481,-86.9103069251959
16C,5afb7bd8-fac4-4316-bc9d-fc67f9dd7839,BUS249,14:14:00,14:14:00,2516.92,to Purdue Airport,Discovery Parking Lot (at Shelter): BUS249,40.4194143664488,-86.9240948214588
16C,5afb7bd8-fac4-4316-bc9d-fc67f9dd7839,BUS543SE,14:14:43,14:14:43,2696.65,to Purdue Airport,Gates Rd & Nimitz Dr (SE Corner): BUS543SE,40.4207538802026,-86.9232279055134
16C,668692c1-2677-41da-bd3c-eeacf0b75c45,BUS295,14:15:00,14:15:00,3482.81,to Purdue Campus University Hall,Wang Hall on Northwestern (at Crosswalk): BUS295,40.4293452459183,-86.9117512948365
16C,668692c1-2677-41da-bd3c-eeacf0b75c45,BUS530,14:16:02,14:16:02,3735.39,to Purdue Campus University Hall,Northwestern Ave & Stadium Ave (McDonalds): BUS530,40.431117,-86.913622
16C,668692c1-2677-41da-bd3c-eeacf0b75c45,BUS105,14:16:41,14:16:41,3896.74,to Purdue Campus University Hall,Northwestern Ave & Evergreen St(SE Corner): BUS105,40.432242,-86.914828
16C,668692c1-2677-41da-bd3c-eeacf0b75c45,BUS284,14:17:30,14:17:30,4095.29,to Purdue Campus University Hall,Northwestern Ave & Meridian St(SE Corner): BUS284,40.4340002199411,-86.9151375839196
16C,668692c1-2677-41da-bd3c-eeacf0b75c45,BUS203,14:18:45,14:18:45,4400.4,to Purdue Campus University Hall,Northwestern Ave & Northridge Dr(SE Corner):BUS203,40.436737,-86.915429
16C,5afb7bd8-fac4-4316-bc9d-fc67f9dd7839,BUS146,14:20:00,14:20:00,4000.05,to Purdue Airport,Aviation Technology Bldg: BUS146,40.4165685425144,-86.9298910754854
16C,ded8b2b9-2477-48a4-a5e7-5badf0c56c77,BUS146,14:20:00,14:20:00,0.0,to Purdue Campus University Hall,Aviation Technology Bldg: BUS146,40.4165685425144,-86.9298910754854
16C,668692c1-2677-41da-bd3c-eeacf0b75c45,BUS426,14:22:00,14:22:00,5190.98,to Purdue Campus University Hall,Stadium Parking Lot on Victory Dr(@Shelter):BUS426,40.4359850547305,-86.9186553012523
16C,d9f9a094-8867-48f1-bf17-83bc1230c05d,BUS426,14:22:00,14:22:00,0.0,to Purdue Airport,Stadium Parking Lot on Victory Dr(@Shelter):BUS426,40.4359850547305,-86.9186553012523
16C,d9f9a094-8867-48f1-bf17-83bc1230c05d,BUS213S,14:24:10,14:24:10,455.47,to Purdue Airport,Steven Beering Dr & Tower Dr (SW of): BUS213S,40.432584,-86.919271
16C,ded8b2b9-2477-48a4-a5e7-5badf0c56c77,BUS440,14:24:30,14:24:30,1325.55,to Purdue Campus University Hall,Harrison St & Russell Dr (SW Corner): BUS440,40.4202740144893,-86.9197617125369
16C,ded8b2b9-2477-48a4-a5e7-5badf0c56c77,BUS324,14:26:00,14:26:00,1763.91,to Purdue Campus University Hall,Lynn Hall on Harrison St: BUS324,40.420295,-86.91458
16C,d9f9a094-8867-48f1-bf17-83bc1230c05d,BUS439,14:26:24,14:26:24,926.23,to Purdue Airport,Russell St & 4th St (NW Corner): BUS439,40.4283480709001,-86.9191991439452
16C,d9f9a094-8867-48f1-bf17-83bc1230c05d,BUS804,14:27:28,14:27:28,1148.5,to Purdue Airport,Russell St & 2nd (NW Corner): BUS804,40.4263479523196,-86.9192270252577
16C,ded8b2b9-2477-48a4-a5e7-5badf0c56c77,BUS294,14:29:04,14:29:04,2350.74,to Purdue Campus University Hall,Grant Street Station Apts (@ Shelter): BUS294,40.4195851803601,-86.9102195739364
16C,d9f9a094-8867-48f1-bf17-83bc1230c05d,BUS899,14:30:06,14:30:06,1701.32,to Purdue Airport,Morgan & Jischke Dr (SW Corner): BUS899,40.4234215869559,-86.9217934859868
16C,ded8b2b9-2477-48a4-a5e7-5badf0c56c77,BUS321,14:30:29,14:30:29,2621.94,to Purdue Campus University Hall,Grant St & Wood St (SE Corner): BUS320,40.4220254970804,-86.910270715372
16C,ded8b2b9-2477-48a4-a5e7-5badf0c56c77,BUS154,14:31:08,14:31:08,2746.19,to Purdue Campus University Hall,Young Hall on Grant St (East): BUS154,40.4231436139921,-86.9102643947257
16C,d9f9a094-8867-48f1-bf17-83bc1230c05d,BUS900,14:31:28,14:31:28,1986.19,to Purdue Airport,Discovery Learning Center:  BUS900,40.4208681994858,-86.9219094887933
16C,d9f9a094-8867-48f1-bf17-83bc1230c05d,BUS543NE,14:32:01,14:32:01,2101.05,to Purdue Airport,Gates Rd & Nimitz Dr (NE Corner): BUS543NE,40.4209102569667,-86.9231100083404
16C,ded8b2b9-2477-48a4-a5e7-5badf0c56c77,BUS184,14:33:06,14:33:06,3121.19,to Purdue Campus University Hall,Grissom Hall on Grant St (at Shelter): BUS184,40.4265181974481,-86.9103069251959
16C,d9f9a094-8867-48f1-bf17-83bc1230c05d,BUS249,14:34:00,14:34:00,2516.92,to Purdue Airport,Discovery Parking Lot (at Shelter): BUS249,40.4194143664488,-86.9240948214588
16C,d9f9a094-8867-48f1-bf17-83bc1230c05d,BUS543SE,14:34:43,14:34:43,2696.65,to Purdue Airport,Gates Rd & Nimitz Dr (SE Corner): BUS543SE,40.4207538802026,-86.9232279055134
16C,ded8b2b9-2477-48a4-a5e7-5badf0c56c77,BUS295,14:35:00,14:35:00,3482.81,to Purdue Campus University Hall,Wang Hall on Northwestern (at Crosswalk): BUS295,40.4293452459183,-86.9117512948365
16C,ded8b2b9-2477-48a4-a5e7-5badf0c56c77,BUS530,14:36:02,14:36:02,3735.39,to Purdue Campus University Hall,Northwestern Ave & Stadium Ave (McDonalds): BUS530,40.431117,-86.913622
16C,ded8b2b9-2477-48a4-a5e7-5badf0c56c77,BUS105,14:36:41,14:36:41,3896.74,to Purdue Campus University Hall,Northwestern Ave & Evergreen St(SE Corner): BUS105,40.432242,-86.914828
16C,ded8b2b9-2477-48a4-a5e7-5badf0c56c77,BUS284,14:37:30,14:37:30,4095.29,to Purdue Campus University Hall,Northwestern Ave & Meridian St(SE Corner): BUS284,40.4340002199411,-86.9151375839196
16C,ded8b2b9-2477-48a4-a5e7-5badf0c56c77,BUS203,14:38:45,14:38:45,4400.4,to Purdue Campus University Hall,Northwestern Ave & Northridge Dr(SE Corner):BUS203,40.436737,-86.915429
16C,0a78adbd-386a-4d22-b1ed-d406e0249a68,BUS146,14:40:00,14:40:00,0.0,to Purdue Campus University Hall,Aviation Technology Bldg: BUS146,40.4165685425144,-86.9298910754854
16C,d9f9a094-8867-48f1-bf17-83bc1230c05d,BUS146,14:40:00,14:40:00,4000.05,to Purdue Airport,Aviation Technology Bldg: BUS146,40.4165685425144,-86.9298910754854
16C,ded8b2b9-2477-48a4-a5e7-5badf0c56c77,BUS426,14:42:00,14:42:00,5190.98,to Purdue Campus University Hall,Stadium Parking Lot on Victory Dr(@Shelter):BUS426,40.4359850547305,-86.9186553012523
16C,058ce2b8-343e-41d5-a2db-45cd09eeb118,BUS426,14:42:00,14:42:00,0.0,to Purdue Airport,Stadium Parking Lot on Victory Dr(@Shelter):BUS426,40.4359850547305,-86.9186553012523
16C,058ce2b8-343e-41d5-a2db-45cd09eeb118,BUS213S,14:44:10,14:44:10,455.47,to Purdue Airport,Steven Beering Dr & Tower Dr (SW of): BUS213S,40.432584,-86.919271
16C,0a78adbd-386a-4d22-b1ed-d406e0249a68,BUS440,14:44:30,14:44:30,1325.55,to Purdue Campus University Hall,Harrison St & Russell Dr (SW Corner): BUS440,40.4202740144893,-86.9197617125369
16C,0a78adbd-386a-4d22-b1ed-d406e0249a68,BUS324,14:46:00,14:46:00,1763.91,to Purdue Campus University Hall,Lynn Hall on Harrison St: BUS324,40.420295,-86.91458
16C,058ce2b8-343e-41d5-a2db-45cd09eeb118,BUS439,14:46:24,14:46:24,926.23,to Purdue Airport,Russell St & 4th St (NW Corner): BUS439,40.4283480709001,-86.9191991439452
16C,058ce2b8-343e-41d5-a2db-45cd09eeb118,BUS804,14:47:28,14:47:28,1148.5,to Purdue Airport,Russell St & 2nd (NW Corner): BUS804,40.4263479523196,-86.9192270252577
16C,0a78adbd-386a-4d22-b1ed-d406e0249a68,BUS294,14:49:04,14:49:04,2350.74,to Purdue Campus University Hall,Grant Street Station Apts (@ Shelter): BUS294,40.4195851803601,-86.9102195739364
16C,058ce2b8-343e-41d5-a2db-45cd09eeb118,BUS899,14:50:06,14:50:06,1701.32,to Purdue Airport,Morgan & Jischke Dr (SW Corner): BUS899,40.4234215869559,-86.9217934859868
16C,0a78adbd-386a-4d22-b1ed-d406e0249a68,BUS321,14:50:29,14:50:29,2621.94,to Purdue Campus University Hall,Grant St & Wood St (SE Corner): BUS320,40.4220254970804,-86.910270715372
16C,0a78adbd-386a-4d22-b1ed-d406e0249a68,BUS154,14:51:08,14:51:08,2746.19,to Purdue Campus University Hall,Young Hall on Grant St (East): BUS154,40.4231436139921,-86.9102643947257
16C,058ce2b8-343e-41d5-a2db-45cd09eeb118,BUS900,14:51:28,14:51:28,1986.19,to Purdue Airport,Discovery Learning Center:  BUS900,40.4208681994858,-86.9219094887933
16C,058ce2b8-343e-41d5-a2db-45cd09eeb118,BUS543NE,14:52:01,14:52:01,2101.05,to Purdue Airport,Gates Rd & Nimitz Dr (NE Corner): BUS543NE,40.4209102569667,-86.9231100083404
16C,0a78adbd-386a-4d22-b1ed-d406e0249a68,BUS184,14:53:06,14:53:06,3121.19,to Purdue Campus University Hall,Grissom Hall on Grant St (at Shelter): BUS184,40.4265181974481,-86.9103069251959
16C,058ce2b8-343e-41d5-a2db-45cd09eeb118,BUS249,14:54:00,14:54:00,2516.92,to Purdue Airport,Discovery Parking Lot (at Shelter): BUS249,40.4194143664488,-86.9240948214588
16C,058ce2b8-343e-41d5-a2db-45cd09eeb118,BUS543SE,14:54:43,14:54:43,2696.65,to Purdue Airport,Gates Rd & Nimitz Dr (SE Corner): BUS543SE,40.4207538802026,-86.9232279055134
16C,0a78adbd-386a-4d22-b1ed-d406e0249a68,BUS295,14:55:00,14:55:00,3482.81,to Purdue Campus University Hall,Wang Hall on Northwestern (at Crosswalk): BUS295,40.4293452459183,-86.9117512948365
16C,0a78adbd-386a-4d22-b1ed-d406e0249a68,BUS530,14:56:02,14:56:02,3735.39,to Purdue Campus University Hall,Northwestern Ave & Stadium Ave (McDonalds): BUS530,40.431117,-86.913622
16C,0a78adbd-386a-4d22-b1ed-d406e0249a68,BUS105,14:56:41,14:56:41,3896.74,to Purdue Campus University Hall,Northwestern Ave & Evergreen St(SE Corner): BUS105,40.432242,-86.914828
16C,0a78adbd-386a-4d22-b1ed-d406e0249a68,BUS284,14:57:30,14:57:30,4095.29,to Purdue Campus University Hall,Northwestern Ave & Meridian St(SE Corner): BUS284,40.4340002199411,-86.9151375839196
16C,0a78adbd-386a-4d22-b1ed-d406e0249a68,BUS203,14:58:45,14:58:45,4400.4,to Purdue Campus University Hall,Northwestern Ave & Northridge Dr(SE Corner):BUS203,40.436737,-86.915429
16C,8939d8eb-6bff-47d6-bd0c-c769affc738c,BUS146,15:00:00,15:00:00,0.0,to Purdue Campus University Hall,Aviation Technology Bldg: BUS146,40.4165685425144,-86.9298910754854
16C,058ce2b8-343e-41d5-a2db-45cd09eeb118,BUS146,15:00:00,15:00:00,4000.05,to Purdue Airport,Aviation Technology Bldg: BUS146,40.4165685425144,-86.9298910754854
16C,0a78adbd-386a-4d22-b1ed-d406e0249a68,BUS426,15:02:00,15:02:00,5190.98,to Purdue Campus University Hall,Stadium Parking Lot on Victory Dr(@Shelter):BUS426,40.4359850547305,-86.9186553012523
16C,fb9e3f4e-3fd6-4f8e-bcf0-26cebfafd422,BUS426,15:02:00,15:02:00,0.0,to Purdue Airport,Stadium Parking Lot on Victory Dr(@Shelter):BUS426,40.4359850547305,-86.9186553012523
16C,fb9e3f4e-3fd6-4f8e-bcf0-26cebfafd422,BUS213S,15:04:10,15:04:10,455.47,to Purdue Airport,Steven Beering Dr & Tower Dr (SW of): BUS213S,40.432584,-86.919271
16C,8939d8eb-6bff-47d6-bd0c-c769affc738c,BUS440,15:04:30,15:04:30,1325.55,to Purdue Campus University Hall,Harrison St & Russell Dr (SW Corner): BUS440,40.4202740144893,-86.9197617125369
16C,8939d8eb-6bff-47d6-bd0c-c769affc738c,BUS324,15:06:00,15:06:00,1763.91,to Purdue Campus University Hall,Lynn Hall on Harrison St: BUS324,40.420295,-86.91458
16C,fb9e3f4e-3fd6-4f8e-bcf0-26cebfafd422,BUS439,15:06:24,15:06:24,926.23,to Purdue Airport,Russell St & 4th St (NW Corner): BUS439,40.4283480709001,-86.9191991439452
16C,fb9e3f4e-3fd6-4f8e-bcf0-26cebfafd422,BUS804,15:07:28,15:07:28,1148.5,to Purdue Airport,Russell St & 2nd (NW Corner): BUS804,40.4263479523196,-86.9192270252577
16C,8939d8eb-6bff-47d6-bd0c-c769affc738c,BUS294,15:09:04,15:09:04,2350.74,to Purdue Campus University Hall,Grant Street Station Apts (@ Shelter): BUS294,40.4195851803601,-86.9102195739364
16C,fb9e3f4e-3fd6-4f8e-bcf0-26cebfafd422,BUS899,15:10:06,15:10:06,1701.32,to Purdue Airport,Morgan & Jischke Dr (SW Corner): BUS899,40.4234215869559,-86.9217934859868
16C,8939d8eb-6bff-47d6-bd0c-c769affc738c,BUS321,15:10:29,15:10:29,2621.94,to Purdue Campus University Hall,Grant St & Wood St (SE Corner): BUS320,40.4220254970804,-86.910270715372
16C,8939d8eb-6bff-47d6-bd0c-c769affc738c,BUS154,15:11:08,15:11:08,2746.19,to Purdue Campus University Hall,Young Hall on Grant St (East): BUS154,40.4231436139921,-86.9102643947257
16C,fb9e3f4e-3fd6-4f8e-bcf0-26cebfafd422,BUS900,15:11:28,15:11:28,1986.19,to Purdue Airport,Discovery Learning Center:  BUS900,40.4208681994858,-86.9219094887933
16C,fb9e3f4e-3fd6-4f8e-bcf0-26cebfafd422,BUS543NE,15:12:01,15:12:01,2101.05,to Purdue Airport,Gates Rd & Nimitz Dr (NE Corner): BUS543NE,40.4209102569667,-86.9231100083404
16C,8939d8eb-6bff-47d6-bd0c-c769affc738c,BUS184,15:13:06,15:13:06,3121.19,to Purdue Campus University Hall,Grissom Hall on Grant St (at Shelter): BUS184,40.4265181974481,-86.9103069251959
16C,fb9e3f4e-3fd6-4f8e-bcf0-26cebfafd422,BUS249,15:14:00,15:14:00,2516.92,to Purdue Airport,Discovery Parking Lot (at Shelter): BUS249,40.4194143664488,-86.9240948214588
16C,fb9e3f4e-3fd6-4f8e-bcf0-26cebfafd422,BUS543SE,15:14:43,15:14:43,2696.65,to Purdue Airport,Gates Rd & Nimitz Dr (SE Corner): BUS543SE,40.4207538802026,-86.9232279055134
16C,8939d8eb-6bff-47d6-bd0c-c769affc738c,BUS295,15:15:00,15:15:00,3482.81,to Purdue Campus University Hall,Wang Hall on Northwestern (at Crosswalk): BUS295,40.4293452459183,-86.9117512948365
16C,8939d8eb-6bff-47d6-bd0c-c769affc738c,BUS530,15:16:02,15:16:02,3735.39,to Purdue Campus University Hall,Northwestern Ave & Stadium Ave (McDonalds): BUS530,40.431117,-86.913622
16C,8939d8eb-6bff-47d6-bd0c-c769affc738c,BUS105,15:16:41,15:16:41,3896.74,to Purdue Campus University Hall,Northwestern Ave & Evergreen St(SE Corner): BUS105,40.432242,-86.914828
16C,8939d8eb-6bff-47d6-bd0c-c769affc738c,BUS284,15:17:30,15:17:30,4095.29,to Purdue Campus University Hall,Northwestern Ave & Meridian St(SE Corner): BUS284,40.4340002199411,-86.9151375839196
16C,8939d8eb-6bff-47d6-bd0c-c769affc738c,BUS203,15:18:45,15:18:45,4400.4,to Purdue Campus University Hall,Northwestern Ave & Northridge Dr(SE Corner):BUS203,40.436737,-86.915429
16C,20b3e716-f0a8-4f8a-88fc-90c8b9985cb4,BUS146,15:20:00,15:20:00,0.0,to Purdue Campus University Hall,Aviation Technology Bldg: BUS146,40.4165685425144,-86.9298910754854
16C,fb9e3f4e-3fd6-4f8e-bcf0-26cebfafd422,BUS146,15:20:00,15:20:00,4000.05,to Purdue Airport,Aviation Technology Bldg: BUS146,40.4165685425144,-86.9298910754854
16C,8939d8eb-6bff-47d6-bd0c-c769affc738c,BUS426,15:22:00,15:22:00,5190.98,to Purdue Campus University Hall,Stadium Parking Lot on Victory Dr(@Shelter):BUS426,40.4359850547305,-86.9186553012523
16C,ac5a872a-94b2-417e-8720-f9f7016630f5,BUS426,15:22:00,15:22:00,0.0,to Purdue Airport,Stadium Parking Lot on Victory Dr(@Shelter):BUS426,40.4359850547305,-86.9186553012523
16C,ac5a872a-94b2-417e-8720-f9f7016630f5,BUS213S,15:24:10,15:24:10,455.47,to Purdue Airport,Steven Beering Dr & Tower Dr (SW of): BUS213S,40.432584,-86.919271
16C,20b3e716-f0a8-4f8a-88fc-90c8b9985cb4,BUS440,15:24:30,15:24:30,1325.55,to Purdue Campus University Hall,Harrison St & Russell Dr (SW Corner): BUS440,40.4202740144893,-86.9197617125369
16C,20b3e716-f0a8-4f8a-88fc-90c8b9985cb4,BUS324,15:26:00,15:26:00,1763.91,to Purdue Campus University Hall,Lynn Hall on Harrison St: BUS324,40.420295,-86.91458
16C,ac5a872a-94b2-417e-8720-f9f7016630f5,BUS439,15:26:24,15:26:24,926.23,to Purdue Airport,Russell St & 4th St (NW Corner): BUS439,40.4283480709001,-86.9191991439452
16C,ac5a872a-94b2-417e-8720-f9f7016630f5,BUS804,15:27:28,15:27:28,1148.5,to Purdue Airport,Russell St & 2nd (NW Corner): BUS804,40.4263479523196,-86.9192270252577
16C,20b3e716-f0a8-4f8a-88fc-90c8b9985cb4,BUS294,15:29:04,15:29:04,2350.74,to Purdue Campus University Hall,Grant Street Station Apts (@ Shelter): BUS294,40.4195851803601,-86.9102195739364
16C,ac5a872a-94b2-417e-8720-f9f7016630f5,BUS899,15:30:06,15:30:06,1701.32,to Purdue Airport,Morgan & Jischke Dr (SW Corner): BUS899,40.4234215869559,-86.9217934859868
16C,20b3e716-f0a8-4f8a-88fc-90c8b9985cb4,BUS321,15:30:29,15:30:29,2621.94,to Purdue Campus University Hall,Grant St & Wood St (SE Corner): BUS320,40.4220254970804,-86.910270715372
16C,20b3e716-f0a8-4f8a-88fc-90c8b9985cb4,BUS154,15:31:08,15:31:08,2746.19,to Purdue Campus University Hall,Young Hall on Grant St (East): BUS154,40.4231436139921,-86.9102643947257
16C,ac5a872a-94b2-417e-8720-f9f7016630f5,BUS900,15:31:28,15:31:28,1986.19,to Purdue Airport,Discovery Learning Center:  BUS900,40.4208681994858,-86.9219094887933
16C,ac5a872a-94b2-417e-8720-f9f7016630f5,BUS543NE,15:32:01,15:32:01,2101.05,to Purdue Airport,Gates Rd & Nimitz Dr (NE Corner): BUS543NE,40.4209102569667,-86.9231100083404
16C,20b3e716-f0a8-4f8a-88fc-90c8b9985cb4,BUS184,15:33:06,15:33:06,3121.19,to Purdue Campus University Hall,Grissom Hall on Grant St (at Shelter): BUS184,40.4265181974481,-86.9103069251959
16C,ac5a872a-94b2-417e-8720-f9f7016630f5,BUS249,15:34:00,15:34:00,2516.92,to Purdue Airport,Discovery Parking Lot (at Shelter): BUS249,40.4194143664488,-86.9240948214588
16C,ac5a872a-94b2-417e-8720-f9f7016630f5,BUS543SE,15:34:43,15:34:43,2696.65,to Purdue Airport,Gates Rd & Nimitz Dr (SE Corner): BUS543SE,40.4207538802026,-86.9232279055134
16C,20b3e716-f0a8-4f8a-88fc-90c8b9985cb4,BUS295,15:35:00,15:35:00,3482.81,to Purdue Campus University Hall,Wang Hall on Northwestern (at Crosswalk): BUS295,40.4293452459183,-86.9117512948365
16C,20b3e716-f0a8-4f8a-88fc-90c8b9985cb4,BUS530,15:36:02,15:36:02,3735.39,to Purdue Campus University Hall,Northwestern Ave & Stadium Ave (McDonalds): BUS530,40.431117,-86.913622
16C,20b3e716-f0a8-4f8a-88fc-90c8b9985cb4,BUS105,15:36:41,15:36:41,3896.74,to Purdue Campus University Hall,Northwestern Ave & Evergreen St(SE Corner): BUS105,40.432242,-86.914828
16C,20b3e716-f0a8-4f8a-88fc-90c8b9985cb4,BUS284,15:37:30,15:37:30,4095.29,to Purdue Campus University Hall,Northwestern Ave & Meridian St(SE Corner): BUS284,40.4340002199411,-86.9151375839196
16C,20b3e716-f0a8-4f8a-88fc-90c8b9985cb4,BUS203,15:38:45,15:38:45,4400.4,to Purdue Campus University Hall,Northwestern Ave & Northridge Dr(SE Corner):BUS203,40.436737,-86.915429
16C,ac5a872a-94b2-417e-8720-f9f7016630f5,BUS146,15:40:00,15:40:00,4000.05,to Purdue Airport,Aviation Technology Bldg: BUS146,40.4165685425144,-86.9298910754854
16C,816ee3cb-522c-4fcd-bdf6-5fdf8daed7c5,BUS146,15:40:00,15:40:00,0.0,to Purdue Campus University Hall,Aviation Technology Bldg: BUS146,40.4165685425144,-86.9298910754854
16C,fb778460-e00e-4c06-a349-9174bf48518a,BUS426,15:42:00,15:42:00,0.0,to Purdue Airport,Stadium Parking Lot on Victory Dr(@Shelter):BUS426,40.4359850547305,-86.9186553012523
16C,20b3e716-f0a8-4f8a-88fc-90c8b9985cb4,BUS426,15:42:00,15:42:00,5190.98,to Purdue Campus University Hall,Stadium Parking Lot on Victory Dr(@Shelter):BUS426,40.4359850547305,-86.9186553012523
16C,fb778460-e00e-4c06-a349-9174bf48518a,BUS213S,15:44:10,15:44:10,455.47,to Purdue Airport,Steven Beering Dr & Tower Dr (SW of): BUS213S,40.432584,-86.919271
16C,816ee3cb-522c-4fcd-bdf6-5fdf8daed7c5,BUS440,15:44:30,15:44:30,1325.55,to Purdue Campus University Hall,Harrison St & Russell Dr (SW Corner): BUS440,40.4202740144893,-86.9197617125369
16C,816ee3cb-522c-4fcd-bdf6-5fdf8daed7c5,BUS324,15:46:00,15:46:00,1763.91,to Purdue Campus University Hall,Lynn Hall on Harrison St: BUS324,40.420295,-86.91458
16C,fb778460-e00e-4c06-a349-9174bf48518a,BUS439,15:46:24,15:46:24,926.23,to Purdue Airport,Russell St & 4th St (NW Corner): BUS439,40.4283480709001,-86.9191991439452
16C,fb778460-e00e-4c06-a349-9174bf48518a,BUS804,15:47:28,15:47:28,1148.5,to Purdue Airport,Russell St & 2nd (NW Corner): BUS804,40.4263479523196,-86.9192270252577
16C,816ee3cb-522c-4fcd-bdf6-5fdf8daed7c5,BUS294,15:49:04,15:49:04,2350.74,to Purdue Campus University Hall,Grant Street Station Apts (@ Shelter): BUS294,40.4195851803601,-86.9102195739364
16C,fb778460-e00e-4c06-a349-9174bf48518a,BUS899,15:50:06,15:50:06,1701.32,to Purdue Airport,Morgan & Jischke Dr (SW Corner): BUS899,40.4234215869559,-86.9217934859868
16C,816ee3cb-522c-4fcd-bdf6-5fdf8daed7c5,BUS321,15:50:29,15:50:29,2621.94,to Purdue Campus University Hall,Grant St & Wood St (SE Corner): BUS320,40.4220254970804,-86.910270715372
16C,816ee3cb-522c-4fcd-bdf6-5fdf8daed7c5,BUS154,15:51:08,15:51:08,2746.19,to Purdue Campus University Hall,Young Hall on Grant St (East): BUS154,40.4231436139921,-86.9102643947257
16C,fb778460-e00e-4c06-a349-9174bf48518a,BUS900,15:51:28,15:51:28,1986.19,to Purdue Airport,Discovery Learning Center:  BUS900,40.4208681994858,-86.9219094887933
16C,fb778460-e00e-4c06-a349-9174bf48518a,BUS543NE,15:52:01,15:52:01,2101.05,to Purdue Airport,Gates Rd & Nimitz Dr (NE Corner): BUS543NE,40.4209102569667,-86.9231100083404
16C,816ee3cb-522c-4fcd-bdf6-5fdf8daed7c5,BUS184,15:53:06,15:53:06,3121.19,to Purdue Campus University Hall,Grissom Hall on Grant St (at Shelter): BUS184,40.4265181974481,-86.9103069251959
16C,fb778460-e00e-4c06-a349-9174bf48518a,BUS249,15:54:00,15:54:00,2516.92,to Purdue Airport,Discovery Parking Lot (at Shelter): BUS249,40.4194143664488,-86.9240948214588
16C,fb778460-e00e-4c06-a349-9174bf48518a,BUS543SE,15:54:43,15:54:43,2696.65,to Purdue Airport,Gates Rd & Nimitz Dr (SE Corner): BUS543SE,40.4207538802026,-86.9232279055134
16C,816ee3cb-522c-4fcd-bdf6-5fdf8daed7c5,BUS295,15:55:00,15:55:00,3482.81,to Purdue Campus University Hall,Wang Hall on Northwestern (at Crosswalk): BUS295,40.4293452459183,-86.9117512948365
16C,816ee3cb-522c-4fcd-bdf6-5fdf8daed7c5,BUS530,15:56:02,15:56:02,3735.39,to Purdue Campus University Hall,Northwestern Ave & Stadium Ave (McDonalds): BUS530,40.431117,-86.913622
16C,816ee3cb-522c-4fcd-bdf6-5fdf8daed7c5,BUS105,15:56:41,15:56:41,3896.74,to Purdue Campus University Hall,Northwestern Ave & Evergreen St(SE Corner): BUS105,40.432242,-86.914828
16C,816ee3cb-522c-4fcd-bdf6-5fdf8daed7c5,BUS284,15:57:30,15:57:30,4095.29,to Purdue Campus University Hall,Northwestern Ave & Meridian St(SE Corner): BUS284,40.4340002199411,-86.9151375839196
16C,816ee3cb-522c-4fcd-bdf6-5fdf8daed7c5,BUS203,15:58:45,15:58:45,4400.4,to Purdue Campus University Hall,Northwestern Ave & Northridge Dr(SE Corner):BUS203,40.436737,-86.915429
16C,fb778460-e00e-4c06-a349-9174bf48518a,BUS146,16:00:00,16:00:00,4000.05,to Purdue Airport,Aviation Technology Bldg: BUS146,40.4165685425144,-86.9298910754854
16C,429be1cd-4c3f-4ce9-a754-3c608d11e75a,BUS146,16:00:00,16:00:00,0.0,to Purdue Campus University Hall,Aviation Technology Bldg: BUS146,40.4165685425144,-86.9298910754854
16C,816ee3cb-522c-4fcd-bdf6-5fdf8daed7c5,BUS426,16:02:00,16:02:00,5190.98,to Purdue Campus University Hall,Stadium Parking Lot on Victory Dr(@Shelter):BUS426,40.4359850547305,-86.9186553012523
16C,dd23612c-65a9-482b-a14f-f30795a941a2,BUS426,16:02:00,16:02:00,0.0,to Purdue Airport,Stadium Parking Lot on Victory Dr(@Shelter):BUS426,40.4359850547305,-86.9186553012523
16C,dd23612c-65a9-482b-a14f-f30795a941a2,BUS213S,16:04:10,16:04:10,455.47,to Purdue Airport,Steven Beering Dr & Tower Dr (SW of): BUS213S,40.432584,-86.919271
16C,429be1cd-4c3f-4ce9-a754-3c608d11e75a,BUS440,16:04:30,16:04:30,1325.55,to Purdue Campus University Hall,Harrison St & Russell Dr (SW Corner): BUS440,40.4202740144893,-86.9197617125369
16C,429be1cd-4c3f-4ce9-a754-3c608d11e75a,BUS324,16:06:00,16:06:00,1763.91,to Purdue Campus University Hall,Lynn Hall on Harrison St: BUS324,40.420295,-86.91458
16C,dd23612c-65a9-482b-a14f-f30795a941a2,BUS439,16:06:24,16:06:24,926.23,to Purdue Airport,Russell St & 4th St (NW Corner): BUS439,40.4283480709001,-86.9191991439452
16C,dd23612c-65a9-482b-a14f-f30795a941a2,BUS804,16:07:28,16:07:28,1148.5,to Purdue Airport,Russell St & 2nd (NW Corner): BUS804,40.4263479523196,-86.9192270252577
16C,429be1cd-4c3f-4ce9-a754-3c608d11e75a,BUS294,16:09:04,16:09:04,2350.74,to Purdue Campus University Hall,Grant Street Station Apts (@ Shelter): BUS294,40.4195851803601,-86.9102195739364
16C,dd23612c-65a9-482b-a14f-f30795a941a2,BUS899,16:10:06,16:10:06,1701.32,to Purdue Airport,Morgan & Jischke Dr (SW Corner): BUS899,40.4234215869559,-86.9217934859868
16C,429be1cd-4c3f-4ce9-a754-3c608d11e75a,BUS321,16:10:29,16:10:29,2621.94,to Purdue Campus University Hall,Grant St & Wood St (SE Corner): BUS320,40.4220254970804,-86.910270715372
16C,429be1cd-4c3f-4ce9-a754-3c608d11e75a,BUS154,16:11:08,16:11:08,2746.19,to Purdue Campus University Hall,Young Hall on Grant St (East): BUS154,40.4231436139921,-86.9102643947257
16C,dd23612c-65a9-482b-a14f-f30795a941a2,BUS900,16:11:28,16:11:28,1986.19,to Purdue Airport,Discovery Learning Center:  BUS900,40.4208681994858,-86.9219094887933
16C,dd23612c-65a9-482b-a14f-f30795a941a2,BUS543NE,16:12:01,16:12:01,2101.05,to Purdue Airport,Gates Rd & Nimitz Dr (NE Corner): BUS543NE,40.4209102569667,-86.9231100083404
16C,429be1cd-4c3f-4ce9-a754-3c608d11e75a,BUS184,16:13:06,16:13:06,3121.19,to Purdue Campus University Hall,Grissom Hall on Grant St (at Shelter): BUS184,40.4265181974481,-86.9103069251959
16C,dd23612c-65a9-482b-a14f-f30795a941a2,BUS249,16:14:00,16:14:00,2516.92,to Purdue Airport,Discovery Parking Lot (at Shelter): BUS249,40.4194143664488,-86.9240948214588
16C,dd23612c-65a9-482b-a14f-f30795a941a2,BUS543SE,16:14:43,16:14:43,2696.65,to Purdue Airport,Gates Rd & Nimitz Dr (SE Corner): BUS543SE,40.4207538802026,-86.9232279055134
16C,429be1cd-4c3f-4ce9-a754-3c608d11e75a,BUS295,16:15:00,16:15:00,3482.81,to Purdue Campus University Hall,Wang Hall on Northwestern (at Crosswalk): BUS295,40.4293452459183,-86.9117512948365
16C,429be1cd-4c3f-4ce9-a754-3c608d11e75a,BUS530,16:16:02,16:16:02,3735.39,to Purdue Campus University Hall,Northwestern Ave & Stadium Ave (McDonalds): BUS530,40.431117,-86.913622
16C,429be1cd-4c3f-4ce9-a754-3c608d11e75a,BUS105,16:16:41,16:16:41,3896.74,to Purdue Campus University Hall,Northwestern Ave & Evergreen St(SE Corner): BUS105,40.432242,-86.914828
16C,429be1cd-4c3f-4ce9-a754-3c608d11e75a,BUS284,16:17:30,16:17:30,4095.29,to Purdue Campus University Hall,Northwestern Ave & Meridian St(SE Corner): BUS284,40.4340002199411,-86.9151375839196
16C,429be1cd-4c3f-4ce9-a754-3c608d11e75a,BUS203,16:18:45,16:18:45,4400.4,to Purdue Campus University Hall,Northwestern Ave & Northridge Dr(SE Corner):BUS203,40.436737,-86.915429
16C,dd23612c-65a9-482b-a14f-f30795a941a2,BUS146,16:20:00,16:20:00,4000.05,to Purdue Airport,Aviation Technology Bldg: BUS146,40.4165685425144,-86.9298910754854
16C,fef702ed-830e-4b34-88dc-94d4d5b7d54b,BUS146,16:20:00,16:20:00,0.0,to Purdue Campus University Hall,Aviation Technology Bldg: BUS146,40.4165685425144,-86.9298910754854
16C,21e0df01-eda6-44e2-84c5-4f4be017f245,BUS426,16:22:00,16:22:00,0.0,to Purdue Airport,Stadium Parking Lot on Victory Dr(@Shelter):BUS426,40.4359850547305,-86.9186553012523
16C,429be1cd-4c3f-4ce9-a754-3c608d11e75a,BUS426,16:22:00,16:22:00,5190.98,to Purdue Campus University Hall,Stadium Parking Lot on Victory Dr(@Shelter):BUS426,40.4359850547305,-86.9186553012523
16C,21e0df01-eda6-44e2-84c5-4f4be017f245,BUS213S,16:24:10,16:24:10,455.47,to Purdue Airport,Steven Beering Dr & Tower Dr (SW of): BUS213S,40.432584,-86.919271
16C,fef702ed-830e-4b34-88dc-94d4d5b7d54b,BUS440,16:24:30,16:24:30,1325.55,to Purdue Campus University Hall,Harrison St & Russell Dr (SW Corner): BUS440,40.4202740144893,-86.9197617125369
16C,fef702ed-830e-4b34-88dc-94d4d5b7d54b,BUS324,16:26:00,16:26:00,1763.91,to Purdue Campus University Hall,Lynn Hall on Harrison St: BUS324,40.420295,-86.91458
16C,21e0df01-eda6-44e2-84c5-4f4be017f245,BUS439,16:26:24,16:26:24,926.23,to Purdue Airport,Russell St & 4th St (NW Corner): BUS439,40.4283480709001,-86.9191991439452
16C,21e0df01-eda6-44e2-84c5-4f4be017f245,BUS804,16:27:28,16:27:28,1148.5,to Purdue Airport,Russell St & 2nd (NW Corner): BUS804,40.4263479523196,-86.9192270252577
16C,fef702ed-830e-4b34-88dc-94d4d5b7d54b,BUS294,16:29:04,16:29:04,2350.74,to Purdue Campus University Hall,Grant Street Station Apts (@ Shelter): BUS294,40.4195851803601,-86.9102195739364
16C,21e0df01-eda6-44e2-84c5-4f4be017f245,BUS899,16:30:06,16:30:06,1701.32,to Purdue Airport,Morgan & Jischke Dr (SW Corner): BUS899,40.4234215869559,-86.9217934859868
16C,fef702ed-830e-4b34-88dc-94d4d5b7d54b,BUS321,16:30:29,16:30:29,2621.94,to Purdue Campus University Hall,Grant St & Wood St (SE Corner): BUS320,40.4220254970804,-86.910270715372
16C,fef702ed-830e-4b34-88dc-94d4d5b7d54b,BUS154,16:31:08,16:31:08,2746.19,to Purdue Campus University Hall,Young Hall on Grant St (East): BUS154,40.4231436139921,-86.9102643947257
16C,21e0df01-eda6-44e2-84c5-4f4be017f245,BUS900,16:31:28,16:31:28,1986.19,to Purdue Airport,Discovery Learning Center:  BUS900,40.4208681994858,-86.9219094887933
16C,21e0df01-eda6-44e2-84c5-4f4be017f245,BUS543NE,16:32:01,16:32:01,2101.05,to Purdue Airport,Gates Rd & Nimitz Dr (NE Corner): BUS543NE,40.4209102569667,-86.9231100083404
16C,fef702ed-830e-4b34-88dc-94d4d5b7d54b,BUS184,16:33:06,16:33:06,3121.19,to Purdue Campus University Hall,Grissom Hall on Grant St (at Shelter): BUS184,40.4265181974481,-86.9103069251959
16C,21e0df01-eda6-44e2-84c5-4f4be017f245,BUS249,16:34:00,16:34:00,2516.92,to Purdue Airport,Discovery Parking Lot (at Shelter): BUS249,40.4194143664488,-86.9240948214588
16C,21e0df01-eda6-44e2-84c5-4f4be017f245,BUS543SE,16:34:43,16:34:43,2696.65,to Purdue Airport,Gates Rd & Nimitz Dr (SE Corner): BUS543SE,40.4207538802026,-86.9232279055134
16C,fef702ed-830e-4b34-88dc-94d4d5b7d54b,BUS295,16:35:00,16:35:00,3482.81,to Purdue Campus University Hall,Wang Hall on Northwestern (at Crosswalk): BUS295,40.4293452459183,-86.9117512948365
16C,fef702ed-830e-4b34-88dc-94d4d5b7d54b,BUS530,16:36:02,16:36:02,3735.39,to Purdue Campus University Hall,Northwestern Ave & Stadium Ave (McDonalds): BUS530,40.431117,-86.913622
16C,fef702ed-830e-4b34-88dc-94d4d5b7d54b,BUS105,16:36:41,16:36:41,3896.74,to Purdue Campus University Hall,Northwestern Ave & Evergreen St(SE Corner): BUS105,40.432242,-86.914828
16C,fef702ed-830e-4b34-88dc-94d4d5b7d54b,BUS284,16:37:30,16:37:30,4095.29,to Purdue Campus University Hall,Northwestern Ave & Meridian St(SE Corner): BUS284,40.4340002199411,-86.9151375839196
16C,fef702ed-830e-4b34-88dc-94d4d5b7d54b,BUS203,16:38:45,16:38:45,4400.4,to Purdue Campus University Hall,Northwestern Ave & Northridge Dr(SE Corner):BUS203,40.436737,-86.915429
16C,21e0df01-eda6-44e2-84c5-4f4be017f245,BUS146,16:40:00,16:40:00,4000.05,to Purdue Airport,Aviation Technology Bldg: BUS146,40.4165685425144,-86.9298910754854
16C,190832f4-8edd-4bb8-898d-7aebef7ea469,BUS146,16:40:00,16:40:00,0.0,to Purdue Campus University Hall,Aviation Technology Bldg: BUS146,40.4165685425144,-86.9298910754854
16C,fef702ed-830e-4b34-88dc-94d4d5b7d54b,BUS426,16:42:00,16:42:00,5190.98,to Purdue Campus University Hall,Stadium Parking Lot on Victory Dr(@Shelter):BUS426,40.4359850547305,-86.9186553012523
16C,0fcb52da-3c67-482f-9235-25d83992d454,BUS426,16:42:00,16:42:00,0.0,to Purdue Airport,Stadium Parking Lot on Victory Dr(@Shelter):BUS426,40.4359850547305,-86.9186553012523
16C,0fcb52da-3c67-482f-9235-25d83992d454,BUS213S,16:44:10,16:44:10,455.47,to Purdue Airport,Steven Beering Dr & Tower Dr (SW of): BUS213S,40.432584,-86.919271
16C,190832f4-8edd-4bb8-898d-7aebef7ea469,BUS440,16:44:30,16:44:30,1325.55,to Purdue Campus University Hall,Harrison St & Russell Dr (SW Corner): BUS440,40.4202740144893,-86.9197617125369
16C,190832f4-8edd-4bb8-898d-7aebef7ea469,BUS324,16:46:00,16:46:00,1763.91,to Purdue Campus University Hall,Lynn Hall on Harrison St: BUS324,40.420295,-86.91458
16C,0fcb52da-3c67-482f-9235-25d83992d454,BUS439,16:46:24,16:46:24,926.23,to Purdue Airport,Russell St & 4th St (NW Corner): BUS439,40.4283480709001,-86.9191991439452
16C,0fcb52da-3c67-482f-9235-25d83992d454,BUS804,16:47:28,16:47:28,1148.5,to Purdue Airport,Russell St & 2nd (NW Corner): BUS804,40.4263479523196,-86.9192270252577
16C,190832f4-8edd-4bb8-898d-7aebef7ea469,BUS294,16:49:04,16:49:04,2350.74,to Purdue Campus University Hall,Grant Street Station Apts (@ Shelter): BUS294,40.4195851803601,-86.9102195739364
16C,0fcb52da-3c67-482f-9235-25d83992d454,BUS899,16:50:06,16:50:06,1701.32,to Purdue Airport,Morgan & Jischke Dr (SW Corner): BUS899,40.4234215869559,-86.9217934859868
16C,190832f4-8edd-4bb8-898d-7aebef7ea469,BUS321,16:50:29,16:50:29,2621.94,to Purdue Campus University Hall,Grant St & Wood St (SE Corner): BUS320,40.4220254970804,-86.910270715372
16C,190832f4-8edd-4bb8-898d-7aebef7ea469,BUS154,16:51:08,16:51:08,2746.19,to Purdue Campus University Hall,Young Hall on Grant St (East): BUS154,40.4231436139921,-86.9102643947257
16C,0fcb52da-3c67-482f-9235-25d83992d454,BUS900,16:51:28,16:51:28,1986.19,to Purdue Airport,Discovery Learning Center:  BUS900,40.4208681994858,-86.9219094887933
16C,0fcb52da-3c67-482f-9235-25d83992d454,BUS543NE,16:52:01,16:52:01,2101.05,to Purdue Airport,Gates Rd & Nimitz Dr (NE Corner): BUS543NE,40.4209102569667,-86.9231100083404
16C,190832f4-8edd-4bb8-898d-7aebef7ea469,BUS184,16:53:06,16:53:06,3121.19,to Purdue Campus University Hall,Grissom Hall on Grant St (at Shelter): BUS184,40.4265181974481,-86.9103069251959
16C,0fcb52da-3c67-482f-9235-25d83992d454,BUS249,16:54:00,16:54:00,2516.92,to Purdue Airport,Discovery Parking Lot (at Shelter): BUS249,40.4194143664488,-86.9240948214588
16C,0fcb52da-3c67-482f-9235-25d83992d454,BUS543SE,16:54:43,16:54:43,2696.65,to Purdue Airport,Gates Rd & Nimitz Dr (SE Corner): BUS543SE,40.4207538802026,-86.9232279055134
16C,190832f4-8edd-4bb8-898d-7aebef7ea469,BUS295,16:55:00,16:55:00,3482.81,to Purdue Campus University Hall,Wang Hall on Northwestern (at Crosswalk): BUS295,40.4293452459183,-86.9117512948365
16C,190832f4-8edd-4bb8-898d-7aebef7ea469,BUS530,16:56:02,16:56:02,3735.39,to Purdue Campus University Hall,Northwestern Ave & Stadium Ave (McDonalds): BUS530,40.431117,-86.913622
16C,190832f4-8edd-4bb8-898d-7aebef7ea469,BUS105,16:56:41,16:56:41,3896.74,to Purdue Campus University Hall,Northwestern Ave & Evergreen St(SE Corner): BUS105,40.432242,-86.914828
16C,190832f4-8edd-4bb8-898d-7aebef7ea469,BUS284,16:57:30,16:57:30,4095.29,to Purdue Campus University Hall,Northwestern Ave & Meridian St(SE Corner): BUS284,40.4340002199411,-86.9151375839196
16C,190832f4-8edd-4bb8-898d-7aebef7ea469,BUS203,16:58:45,16:58:45,4400.4,to Purdue Campus University Hall,Northwestern Ave & Northridge Dr(SE Corner):BUS203,40.436737,-86.915429
16C,db3718b7-0ed4-4ac6-863c-41d0ed7e71ec,BUS146,17:00:00,17:00:00,0.0,to Purdue Campus University Hall,Aviation Technology Bldg: BUS146,40.4165685425144,-86.9298910754854
16C,0fcb52da-3c67-482f-9235-25d83992d454,BUS146,17:00:00,17:00:00,4000.05,to Purdue Airport,Aviation Technology Bldg: BUS146,40.4165685425144,-86.9298910754854
16C,f87e2d5e-020e-432f-a991-8c1461570a20,BUS426,17:02:00,17:02:00,0.0,to Purdue Airport,Stadium Parking Lot on Victory Dr(@Shelter):BUS426,40.4359850547305,-86.9186553012523
16C,190832f4-8edd-4bb8-898d-7aebef7ea469,BUS426,17:02:00,17:02:00,5190.98,to Purdue Campus University Hall,Stadium Parking Lot on Victory Dr(@Shelter):BUS426,40.4359850547305,-86.9186553012523
16C,f87e2d5e-020e-432f-a991-8c1461570a20,BUS213S,17:04:10,17:04:10,455.47,to Purdue Airport,Steven Beering Dr & Tower Dr (SW of): BUS213S,40.432584,-86.919271
16C,db3718b7-0ed4-4ac6-863c-41d0ed7e71ec,BUS440,17:04:30,17:04:30,1325.55,to Purdue Campus University Hall,Harrison St & Russell Dr (SW Corner): BUS440,40.4202740144893,-86.9197617125369
16C,db3718b7-0ed4-4ac6-863c-41d0ed7e71ec,BUS324,17:06:00,17:06:00,1763.91,to Purdue Campus University Hall,Lynn Hall on Harrison St: BUS324,40.420295,-86.91458
16C,f87e2d5e-020e-432f-a991-8c1461570a20,BUS439,17:06:24,17:06:24,926.23,to Purdue Airport,Russell St & 4th St (NW Corner): BUS439,40.4283480709001,-86.9191991439452
16C,f87e2d5e-020e-432f-a991-8c1461570a20,BUS804,17:07:28,17:07:28,1148.5,to Purdue Airport,Russell St & 2nd (NW Corner): BUS804,40.4263479523196,-86.9192270252577
16C,db3718b7-0ed4-4ac6-863c-41d0ed7e71ec,BUS294,17:09:04,17:09:04,2350.74,to Purdue Campus University Hall,Grant Street Station Apts (@ Shelter): BUS294,40.4195851803601,-86.9102195739364
16C,f87e2d5e-020e-432f-a991-8c1461570a20,BUS899,17:10:06,17:10:06,1701.32,to Purdue Airport,Morgan & Jischke Dr (SW Corner): BUS899,40.4234215869559,-86.9217934859868
16C,db3718b7-0ed4-4ac6-863c-41d0ed7e71ec,BUS321,17:10:29,17:10:29,2621.94,to Purdue Campus University Hall,Grant St & Wood St (SE Corner): BUS320,40.4220254970804,-86.910270715372
16C,db3718b7-0ed4-4ac6-863c-41d0ed7e71ec,BUS154,17:11:08,17:11:08,2746.19,to Purdue Campus University Hall,Young Hall on Grant St (East): BUS154,40.4231436139921,-86.9102643947257
16C,f87e2d5e-020e-432f-a991-8c1461570a20,BUS900,17:11:28,17:11:28,1986.19,to Purdue Airport,Discovery Learning Center:  BUS900,40.4208681994858,-86.9219094887933
16C,f87e2d5e-020e-432f-a991-8c1461570a20,BUS543NE,17:12:01,17:12:01,2101.05,to Purdue Airport,Gates Rd & Nimitz Dr (NE Corner): BUS543NE,40.4209102569667,-86.9231100083404
16C,db3718b7-0ed4-4ac6-863c-41d0ed7e71ec,BUS184,17:13:06,17:13:06,3121.19,to Purdue Campus University Hall,Grissom Hall on Grant St (at Shelter): BUS184,40.4265181974481,-86.9103069251959
16C,f87e2d5e-020e-432f-a991-8c1461570a20,BUS249,17:14:00,17:14:00,2516.92,to Purdue Airport,Discovery Parking Lot (at Shelter): BUS249,40.4194143664488,-86.9240948214588
16C,f87e2d5e-020e-432f-a991-8c1461570a20,BUS543SE,17:14:43,17:14:43,2696.65,to Purdue Airport,Gates Rd & Nimitz Dr (SE Corner): BUS543SE,40.4207538802026,-86.9232279055134
16C,db3718b7-0ed4-4ac6-863c-41d0ed7e71ec,BUS295,17:15:00,17:15:00,3482.81,to Purdue Campus University Hall,Wang Hall on Northwestern (at Crosswalk): BUS295,40.4293452459183,-86.9117512948365
16C,db3718b7-0ed4-4ac6-863c-41d0ed7e71ec,BUS530,17:16:02,17:16:02,3735.39,to Purdue Campus University Hall,Northwestern Ave & Stadium Ave (McDonalds): BUS530,40.431117,-86.913622
16C,db3718b7-0ed4-4ac6-863c-41d0ed7e71ec,BUS105,17:16:41,17:16:41,3896.74,to Purdue Campus University Hall,Northwestern Ave & Evergreen St(SE Corner): BUS105,40.432242,-86.914828
16C,db3718b7-0ed4-4ac6-863c-41d0ed7e71ec,BUS284,17:17:30,17:17:30,4095.29,to Purdue Campus University Hall,Northwestern Ave & Meridian St(SE Corner): BUS284,40.4340002199411,-86.9151375839196
16C,db3718b7-0ed4-4ac6-863c-41d0ed7e71ec,BUS203,17:18:45,17:18:45,4400.4,to Purdue Campus University Hall,Northwestern Ave & Northridge Dr(SE Corner):BUS203,40.436737,-86.915429
16C,1480eab4-7bfb-467e-a958-04e2b32aefe8,BUS146,17:20:00,17:20:00,0.0,to Purdue Campus University Hall,Aviation Technology Bldg: BUS146,40.4165685425144,-86.9298910754854
16C,f87e2d5e-020e-432f-a991-8c1461570a20,BUS146,17:20:00,17:20:00,4000.05,to Purdue Airport,Aviation Technology Bldg: BUS146,40.4165685425144,-86.9298910754854
16C,db3718b7-0ed4-4ac6-863c-41d0ed7e71ec,BUS426,17:22:00,17:22:00,5190.98,to Purdue Campus University Hall,Stadium Parking Lot on Victory Dr(@Shelter):BUS426,40.4359850547305,-86.9186553012523
16C,02ba1eea-ef13-4f5a-97e8-69efbe50c5eb,BUS426,17:22:00,17:22:00,0.0,to Purdue Airport,Stadium Parking Lot on Victory Dr(@Shelter):BUS426,40.4359850547305,-86.9186553012523
16C,02ba1eea-ef13-4f5a-97e8-69efbe50c5eb,BUS213S,17:24:10,17:24:10,455.47,to Purdue Airport,Steven Beering Dr & Tower Dr (SW of): BUS213S,40.432584,-86.919271
16C,1480eab4-7bfb-467e-a958-04e2b32aefe8,BUS440,17:24:30,17:24:30,1325.55,to Purdue Campus University Hall,Harrison St & Russell Dr (SW Corner): BUS440,40.4202740144893,-86.9197617125369
16C,1480eab4-7bfb-467e-a958-04e2b32aefe8,BUS324,17:26:00,17:26:00,1763.91,to Purdue Campus University Hall,Lynn Hall on Harrison St: BUS324,40.420295,-86.91458
16C,02ba1eea-ef13-4f5a-97e8-69efbe50c5eb,BUS439,17:26:24,17:26:24,926.23,to Purdue Airport,Russell St & 4th St (NW Corner): BUS439,40.4283480709001,-86.9191991439452
16C,02ba1eea-ef13-4f5a-97e8-69efbe50c5eb,BUS804,17:27:28,17:27:28,1148.5,to Purdue Airport,Russell St & 2nd (NW Corner): BUS804,40.4263479523196,-86.9192270252577
16C,1480eab4-7bfb-467e-a958-04e2b32aefe8,BUS294,17:29:04,17:29:04,2350.74,to Purdue Campus University Hall,Grant Street Station Apts (@ Shelter): BUS294,40.4195851803601,-86.9102195739364
16C,02ba1eea-ef13-4f5a-97e8-69efbe50c5eb,BUS899,17:30:06,17:30:06,1701.32,to Purdue Airport,Morgan & Jischke Dr (SW Corner): BUS899,40.4234215869559,-86.9217934859868
16C,1480eab4-7bfb-467e-a958-04e2b32aefe8,BUS321,17:30:29,17:30:29,2621.94,to Purdue Campus University Hall,Grant St & Wood St (SE Corner): BUS320,40.4220254970804,-86.910270715372
16C,1480eab4-7bfb-467e-a958-04e2b32aefe8,BUS154,17:31:08,17:31:08,2746.19,to Purdue Campus University Hall,Young Hall on Grant St (East): BUS154,40.4231436139921,-86.9102643947257
16C,02ba1eea-ef13-4f5a-97e8-69efbe50c5eb,BUS900,17:31:28,17:31:28,1986.19,to Purdue Airport,Discovery Learning Center:  BUS900,40.4208681994858,-86.9219094887933
16C,02ba1eea-ef13-4f5a-97e8-69efbe50c5eb,BUS543NE,17:32:01,17:32:01,2101.05,to Purdue Airport,Gates Rd & Nimitz Dr (NE Corner): BUS543NE,40.4209102569667,-86.9231100083404
16C,1480eab4-7bfb-467e-a958-04e2b32aefe8,BUS184,17:33:06,17:33:06,3121.19,to Purdue Campus University Hall,Grissom Hall on Grant St (at Shelter): BUS184,40.4265181974481,-86.9103069251959
16C,02ba1eea-ef13-4f5a-97e8-69efbe50c5eb,BUS249,17:34:00,17:34:00,2516.92,to Purdue Airport,Discovery Parking Lot (at Shelter): BUS249,40.4194143664488,-86.9240948214588
16C,02ba1eea-ef13-4f5a-97e8-69efbe50c5eb,BUS543SE,17:34:43,17:34:43,2696.65,to Purdue Airport,Gates Rd & Nimitz Dr (SE Corner): BUS543SE,40.4207538802026,-86.9232279055134
16C,1480eab4-7bfb-467e-a958-04e2b32aefe8,BUS295,17:35:00,17:35:00,3482.81,to Purdue Campus University Hall,Wang Hall on Northwestern (at Crosswalk): BUS295,40.4293452459183,-86.9117512948365
16C,1480eab4-7bfb-467e-a958-04e2b32aefe8,BUS530,17:36:02,17:36:02,3735.39,to Purdue Campus University Hall,Northwestern Ave & Stadium Ave (McDonalds): BUS530,40.431117,-86.913622
16C,1480eab4-7bfb-467e-a958-04e2b32aefe8,BUS105,17:36:41,17:36:41,3896.74,to Purdue Campus University Hall,Northwestern Ave & Evergreen St(SE Corner): BUS105,40.432242,-86.914828
16C,1480eab4-7bfb-467e-a958-04e2b32aefe8,BUS284,17:37:30,17:37:30,4095.29,to Purdue Campus University Hall,Northwestern Ave & Meridian St(SE Corner): BUS284,40.4340002199411,-86.9151375839196
16C,1480eab4-7bfb-467e-a958-04e2b32aefe8,BUS203,17:38:45,17:38:45,4400.4,to Purdue Campus University Hall,Northwestern Ave & Northridge Dr(SE Corner):BUS203,40.436737,-86.915429
16C,cd05b8b6-6fec-4d9f-930c-4ac63b893592,BUS146,17:40:00,17:40:00,0.0,to Purdue Campus University Hall,Aviation Technology Bldg: BUS146,40.4165685425144,-86.9298910754854
16C,02ba1eea-ef13-4f5a-97e8-69efbe50c5eb,BUS146,17:40:00,17:40:00,4000.05,to Purdue Airport,Aviation Technology Bldg: BUS146,40.4165685425144,-86.9298910754854
16C,1480eab4-7bfb-467e-a958-04e2b32aefe8,BUS426,17:42:00,17:42:00,5190.98,to Purdue Campus University Hall,Stadium Parking Lot on Victory Dr(@Shelter):BUS426,40.4359850547305,-86.9186553012523
16C,32d97ceb-3f09-4cc0-a7fc-ee370aeb8262,BUS426,17:42:00,17:42:00,0.0,to Purdue Airport,Stadium Parking Lot on Victory Dr(@Shelter):BUS426,40.4359850547305,-86.9186553012523
16C,32d97ceb-3f09-4cc0-a7fc-ee370aeb8262,BUS213S,17:44:10,17:44:10,455.47,to Purdue Airport,Steven Beering Dr & Tower Dr (SW of): BUS213S,40.432584,-86.919271
16C,cd05b8b6-6fec-4d9f-930c-4ac63b893592,BUS440,17:44:30,17:44:30,1325.55,to Purdue Campus University Hall,Harrison St & Russell Dr (SW Corner): BUS440,40.4202740144893,-86.9197617125369
16C,cd05b8b6-6fec-4d9f-930c-4ac63b893592,BUS324,17:46:00,17:46:00,1763.91,to Purdue Campus University Hall,Lynn Hall on Harrison St: BUS324,40.420295,-86.91458
16C,32d97ceb-3f09-4cc0-a7fc-ee370aeb8262,BUS439,17:46:24,17:46:24,926.23,to Purdue Airport,Russell St & 4th St (NW Corner): BUS439,40.4283480709001,-86.9191991439452
16C,32d97ceb-3f09-4cc0-a7fc-ee370aeb8262,BUS804,17:47:28,17:47:28,1148.5,to Purdue Airport,Russell St & 2nd (NW Corner): BUS804,40.4263479523196,-86.9192270252577
16C,cd05b8b6-6fec-4d9f-930c-4ac63b893592,BUS294,17:49:04,17:49:04,2350.74,to Purdue Campus University Hall,Grant Street Station Apts (@ Shelter): BUS294,40.4195851803601,-86.9102195739364
16C,32d97ceb-3f09-4cc0-a7fc-ee370aeb8262,BUS899,17:50:06,17:50:06,1701.32,to Purdue Airport,Morgan & Jischke Dr (SW Corner): BUS899,40.4234215869559,-86.9217934859868
16C,cd05b8b6-6fec-4d9f-930c-4ac63b893592,BUS321,17:50:29,17:50:29,2621.94,to Purdue Campus University Hall,Grant St & Wood St (SE Corner): BUS320,40.4220254970804,-86.910270715372
16C,cd05b8b6-6fec-4d9f-930c-4ac63b893592,BUS154,17:51:08,17:51:08,2746.19,to Purdue Campus University Hall,Young Hall on Grant St (East): BUS154,40.4231436139921,-86.9102643947257
16C,32d97ceb-3f09-4cc0-a7fc-ee370aeb8262,BUS900,17:51:28,17:51:28,1986.19,to Purdue Airport,Discovery Learning Center:  BUS900,40.4208681994858,-86.9219094887933
16C,32d97ceb-3f09-4cc0-a7fc-ee370aeb8262,BUS543NE,17:52:01,17:52:01,2101.05,to Purdue Airport,Gates Rd & Nimitz Dr (NE Corner): BUS543NE,40.4209102569667,-86.9231100083404
16C,cd05b8b6-6fec-4d9f-930c-4ac63b893592,BUS184,17:53:06,17:53:06,3121.19,to Purdue Campus University Hall,Grissom Hall on Grant St (at Shelter): BUS184,40.4265181974481,-86.9103069251959
16C,32d97ceb-3f09-4cc0-a7fc-ee370aeb8262,BUS249,17:54:00,17:54:00,2516.92,to Purdue Airport,Discovery Parking Lot (at Shelter): BUS249,40.4194143664488,-86.9240948214588
16C,32d97ceb-3f09-4cc0-a7fc-ee370aeb8262,BUS543SE,17:54:43,17:54:43,2696.65,to Purdue Airport,Gates Rd & Nimitz Dr (SE Corner): BUS543SE,40.4207538802026,-86.9232279055134
16C,cd05b8b6-6fec-4d9f-930c-4ac63b893592,BUS295,17:55:00,17:55:00,3482.81,to Purdue Campus University Hall,Wang Hall on Northwestern (at Crosswalk): BUS295,40.4293452459183,-86.9117512948365
16C,cd05b8b6-6fec-4d9f-930c-4ac63b893592,BUS530,17:56:02,17:56:02,3735.39,to Purdue Campus University Hall,Northwestern Ave & Stadium Ave (McDonalds): BUS530,40.431117,-86.913622
16C,cd05b8b6-6fec-4d9f-930c-4ac63b893592,BUS105,17:56:41,17:56:41,3896.74,to Purdue Campus University Hall,Northwestern Ave & Evergreen St(SE Corner): BUS105,40.432242,-86.914828
16C,cd05b8b6-6fec-4d9f-930c-4ac63b893592,BUS284,17:57:30,17:57:30,4095.29,to Purdue Campus University Hall,Northwestern Ave & Meridian St(SE Corner): BUS284,40.4340002199411,-86.9151375839196
16C,cd05b8b6-6fec-4d9f-930c-4ac63b893592,BUS203,17:58:45,17:58:45,4400.4,to Purdue Campus University Hall,Northwestern Ave & Northridge Dr(SE Corner):BUS203,40.436737,-86.915429
16C,dffb3e13-bbd1-49db-8264-9af5d119cd35,BUS146,18:00:00,18:00:00,0.0,to Purdue Campus University Hall,Aviation Technology Bldg: BUS146,40.4165685425144,-86.9298910754854
16C,32d97ceb-3f09-4cc0-a7fc-ee370aeb8262,BUS146,18:00:00,18:00:00,4000.05,to Purdue Airport,Aviation Technology Bldg: BUS146,40.4165685425144,-86.9298910754854
16C,cd05b8b6-6fec-4d9f-930c-4ac63b893592,BUS426,18:02:00,18:02:00,5190.98,to Purdue Campus University Hall,Stadium Parking Lot on Victory Dr(@Shelter):BUS426,40.4359850547305,-86.9186553012523
16C,f06949a9-e920-4b3b-acfe-e3311ad2d52a,BUS426,18:02:00,18:02:00,0.0,to Purdue Airport,Stadium Parking Lot on Victory Dr(@Shelter):BUS426,40.4359850547305,-86.9186553012523
16C,f06949a9-e920-4b3b-acfe-e3311ad2d52a,BUS213S,18:04:10,18:04:10,455.47,to Purdue Airport,Steven Beering Dr & Tower Dr (SW of): BUS213S,40.432584,-86.919271
16C,dffb3e13-bbd1-49db-8264-9af5d119cd35,BUS440,18:04:30,18:04:30,1325.55,to Purdue Campus University Hall,Harrison St & Russell Dr (SW Corner): BUS440,40.4202740144893,-86.9197617125369
16C,dffb3e13-bbd1-49db-8264-9af5d119cd35,BUS324,18:06:00,18:06:00,1763.91,to Purdue Campus University Hall,Lynn Hall on Harrison St: BUS324,40.420295,-86.91458
16C,f06949a9-e920-4b3b-acfe-e3311ad2d52a,BUS439,18:06:24,18:06:24,926.23,to Purdue Airport,Russell St & 4th St (NW Corner): BUS439,40.4283480709001,-86.9191991439452
16C,f06949a9-e920-4b3b-acfe-e3311ad2d52a,BUS804,18:07:28,18:07:28,1148.5,to Purdue Airport,Russell St & 2nd (NW Corner): BUS804,40.4263479523196,-86.9192270252577
16C,dffb3e13-bbd1-49db-8264-9af5d119cd35,BUS294,18:09:04,18:09:04,2350.74,to Purdue Campus University Hall,Grant Street Station Apts (@ Shelter): BUS294,40.4195851803601,-86.9102195739364
16C,f06949a9-e920-4b3b-acfe-e3311ad2d52a,BUS899,18:10:06,18:10:06,1701.32,to Purdue Airport,Morgan & Jischke Dr (SW Corner): BUS899,40.4234215869559,-86.9217934859868
16C,dffb3e13-bbd1-49db-8264-9af5d119cd35,BUS321,18:10:29,18:10:29,2621.94,to Purdue Campus University Hall,Grant St & Wood St (SE Corner): BUS320,40.4220254970804,-86.910270715372
16C,dffb3e13-bbd1-49db-8264-9af5d119cd35,BUS154,18:11:08,18:11:08,2746.19,to Purdue Campus University Hall,Young Hall on Grant St (East): BUS154,40.4231436139921,-86.9102643947257
16C,f06949a9-e920-4b3b-acfe-e3311ad2d52a,BUS900,18:11:28,18:11:28,1986.19,to Purdue Airport,Discovery Learning Center:  BUS900,40.4208681994858,-86.9219094887933
16C,f06949a9-e920-4b3b-acfe-e3311ad2d52a,BUS543NE,18:12:01,18:12:01,2101.05,to Purdue Airport,Gates Rd & Nimitz Dr (NE Corner): BUS543NE,40.4209102569667,-86.9231100083404
16C,dffb3e13-bbd1-49db-8264-9af5d119cd35,BUS184,18:13:06,18:13:06,3121.19,to Purdue Campus University Hall,Grissom Hall on Grant St (at Shelter): BUS184,40.4265181974481,-86.9103069251959
16C,f06949a9-e920-4b3b-acfe-e3311ad2d52a,BUS249,18:14:00,18:14:00,2516.92,to Purdue Airport,Discovery Parking Lot (at Shelter): BUS249,40.4194143664488,-86.9240948214588
16C,f06949a9-e920-4b3b-acfe-e3311ad2d52a,BUS543SE,18:14:43,18:14:43,2696.65,to Purdue Airport,Gates Rd & Nimitz Dr (SE Corner): BUS543SE,40.4207538802026,-86.9232279055134
16C,dffb3e13-bbd1-49db-8264-9af5d119cd35,BUS295,18:15:00,18:15:00,3482.81,to Purdue Campus University Hall,Wang Hall on Northwestern (at Crosswalk): BUS295,40.4293452459183,-86.9117512948365
16C,dffb3e13-bbd1-49db-8264-9af5d119cd35,BUS530,18:16:02,18:16:02,3735.39,to Purdue Campus University Hall,Northwestern Ave & Stadium Ave (McDonalds): BUS530,40.431117,-86.913622
16C,dffb3e13-bbd1-49db-8264-9af5d119cd35,BUS105,18:16:41,18:16:41,3896.74,to Purdue Campus University Hall,Northwestern Ave & Evergreen St(SE Corner): BUS105,40.432242,-86.914828
16C,dffb3e13-bbd1-49db-8264-9af5d119cd35,BUS284,18:17:30,18:17:30,4095.29,to Purdue Campus University Hall,Northwestern Ave & Meridian St(SE Corner): BUS284,40.4340002199411,-86.9151375839196
16C,dffb3e13-bbd1-49db-8264-9af5d119cd35,BUS203,18:18:45,18:18:45,4400.4,to Purdue Campus University Hall,Northwestern Ave & Northridge Dr(SE Corner):BUS203,40.436737,-86.915429
16C,f06949a9-e920-4b3b-acfe-e3311ad2d52a,BUS146,18:20:00,18:20:00,4000.05,to Purdue Airport,Aviation Technology Bldg: BUS146,40.4165685425144,-86.9298910754854
16C,dffb3e13-bbd1-49db-8264-9af5d119cd35,BUS426,18:22:00,18:22:00,5190.98,to Purdue Campus University Hall,Stadium Parking Lot on Victory Dr(@Shelter):BUS426,40.4359850547305,-86.9186553012523
